{
"type": "FeatureCollection",
"name": "oik merge",
"crs": { "type": "name", "properties": { "name": "urn:ogc:def:crs:OGC:1.3:CRS84" } },
"features": [
{ "type": "Feature", "properties": { "objectid": 12717.0, "point_x": 617692.3, "point_y": 4552780.5, "lat": 41.117798, "lon": 25.401886, "h": 65.0, "Name": "Κομοτηνή,η", "Code": 101010101 }, "geometry": { "type": "Point", "coordinates": [ 25.403712267637271, 41.120348059611231 ] } },
{ "type": "Feature", "properties": { "objectid": 13013.0, "point_x": 616084.8, "point_y": 4553915.0, "lat": 41.128242, "lon": 25.38296, "h": 42.0, "Name": "Ήφαιστος,ο", "Code": 101010102 }, "geometry": { "type": "Point", "coordinates": [ 25.384784530156594, 41.130794922017266 ] } },
{ "type": "Feature", "properties": { "objectid": 13018.0, "point_x": 611886.4, "point_y": 4546132.0, "lat": 41.058743, "lon": 25.33154, "h": 29.0, "Name": "Μέγα Κρανοβούνιον,το", "Code": 101010103 }, "geometry": { "type": "Point", "coordinates": [ 25.333360367610336, 41.061297504176579 ] } },
{ "type": "Feature", "properties": { "objectid": 13016.0, "point_x": 613742.9, "point_y": 4549810.5, "lat": 41.091614, "lon": 25.354307, "h": 40.0, "Name": "Μεσοχώριον,το", "Code": 101010104 }, "geometry": { "type": "Point", "coordinates": [ 25.356130182248052, 41.094165533910115 ] } },
{ "type": "Feature", "properties": { "objectid": 13019.0, "point_x": 611940.0, "point_y": 4545335.0, "lat": 41.051556, "lon": 25.332031, "h": 21.0, "Name": "Μικρόν Κρανοβούνιον,το", "Code": 101010105 }, "geometry": { "type": "Point", "coordinates": [ 25.333853038228273, 41.054109843151949 ] } },
{ "type": "Feature", "properties": { "objectid": 13015.0, "point_x": 611785.8, "point_y": 4551317.5, "lat": 41.105453, "lon": 25.331285, "h": 36.0, "Name": "Σχολή Αστυνομίας,η", "Code": 101010107 }, "geometry": { "type": "Point", "coordinates": [ 25.333107377849476, 41.108007882723037 ] } },
{ "type": "Feature", "properties": { "objectid": 13014.0, "point_x": 614055.56, "point_y": 4552393.0, "lat": 41.114822, "lon": 25.358507, "h": 48.0, "Name": "Υφανταί,οι", "Code": 101010108 }, "geometry": { "type": "Point", "coordinates": [ 25.360331653899898, 41.117377008947159 ] } },
{ "type": "Feature", "properties": { "objectid": 12960.0, "point_x": 629068.6, "point_y": 4549098.5, "lat": 41.082912, "lon": 25.536577, "h": 39.0, "Name": "Ανθοχώριον,το", "Code": 101010201 }, "geometry": { "type": "Point", "coordinates": [ 25.538406418431293, 41.085461283027286 ] } },
{ "type": "Feature", "properties": { "objectid": 12729.0, "point_x": 628348.0, "point_y": 4555634.5, "lat": 41.14188, "lon": 25.529367, "h": 82.0, "Name": "Γρατινή,η", "Code": 101010301 }, "geometry": { "type": "Point", "coordinates": [ 25.531197479461202, 41.144428854835446 ] } },
{ "type": "Feature", "properties": { "objectid": 12701.0, "point_x": 624267.5, "point_y": 4548085.0, "lat": 41.074535, "lon": 25.479235, "h": 67.0, "Name": "Θρυλόριον,το", "Code": 101010401 }, "geometry": { "type": "Point", "coordinates": [ 25.481060457425958, 41.077085406217734 ] } },
{ "type": "Feature", "properties": { "objectid": 13001.0, "point_x": 622122.7, "point_y": 4550368.0, "lat": 41.095413, "lon": 25.454165, "h": 79.0, "Name": "Ροδίτης,ο", "Code": 101010402 }, "geometry": { "type": "Point", "coordinates": [ 25.455989977758868, 41.09796560646339 ] } },
{ "type": "Feature", "properties": { "objectid": 13002.0, "point_x": 623883.8, "point_y": 4545940.5, "lat": 41.05528, "lon": 25.474236, "h": 46.0, "Name": "Φύλακας,ο", "Code": 101010403 }, "geometry": { "type": "Point", "coordinates": [ 25.476062176780161, 41.057829590071464 ] } },
{ "type": "Feature", "properties": { "objectid": 13004.0, "point_x": 615463.44, "point_y": 4549816.5, "lat": 41.09142, "lon": 25.374788, "h": 37.0, "Name": "Ιτέα,η", "Code": 101010501 }, "geometry": { "type": "Point", "coordinates": [ 25.376611858835606, 41.093973843204957 ] } },
{ "type": "Feature", "properties": { "objectid": 12727.0, "point_x": 622823.75, "point_y": 4555205.5, "lat": 41.13887, "lon": 25.463476, "h": 96.0, "Name": "Κάλχας,ο", "Code": 101010601 }, "geometry": { "type": "Point", "coordinates": [ 25.465304454501137, 41.141422330395038 ] } },
{ "type": "Feature", "properties": { "objectid": 12730.0, "point_x": 620524.6, "point_y": 4555774.5, "lat": 41.14434, "lon": 25.436203, "h": 75.0, "Name": "Καρυδιά,η", "Code": 101010701 }, "geometry": { "type": "Point", "coordinates": [ 25.438029334351164, 41.146891911388948 ] } },
{ "type": "Feature", "properties": { "objectid": 13003.0, "point_x": 620133.9, "point_y": 4551427.5, "lat": 41.105255, "lon": 25.430696, "h": 41.0, "Name": "Κηκίδιον,το", "Code": 101010801 }, "geometry": { "type": "Point", "coordinates": [ 25.432522283219772, 41.107806841463002 ] } },
{ "type": "Feature", "properties": { "objectid": 12710.0, "point_x": 618444.75, "point_y": 4549491.5, "lat": 41.088066, "lon": 25.410213, "h": 40.0, "Name": "Κόσμιον,το", "Code": 101010901 }, "geometry": { "type": "Point", "coordinates": [ 25.412038460174347, 41.090618975166876 ] } },
{ "type": "Feature", "properties": { "objectid": 12734.0, "point_x": 620802.06, "point_y": 4559182.5, "lat": 41.17499, "lon": 25.44018, "h": 125.0, "Name": "Πάνδροσος,η", "Code": 101011001 }, "geometry": { "type": "Point", "coordinates": [ 25.442007240091115, 41.177540798162475 ] } },
{ "type": "Feature", "properties": { "objectid": 13032.0, "point_x": 621607.4, "point_y": 4564109.0, "lat": 41.21923, "lon": 25.450756, "h": 485.0, "Name": "Νυμφαία,η", "Code": 101011002 }, "geometry": { "type": "Point", "coordinates": [ 25.452586068549376, 41.221781021614071 ] } },
{ "type": "Feature", "properties": { "objectid": 12707.0, "point_x": 607907.75, "point_y": 4549055.5, "lat": 41.085606, "lon": 25.284714, "h": 27.0, "Name": "Αίγειρος,η", "Code": 101020101 }, "geometry": { "type": "Point", "coordinates": [ 25.286535163315328, 41.088161196084641 ] } },
{ "type": "Feature", "properties": { "objectid": 13021.0, "point_x": 609077.9, "point_y": 4549604.5, "lat": 41.090397, "lon": 25.298738, "h": 34.0, "Name": "Μεσσούνη,η", "Code": 101020103 }, "geometry": { "type": "Point", "coordinates": [ 25.300560508190884, 41.092949827723118 ] } },
{ "type": "Feature", "properties": { "objectid": 13028.0, "point_x": 598348.25, "point_y": 4534192.0, "lat": 40.952957, "lon": 25.168556, "h": 18.0, "Name": "Αρωγή,η", "Code": 101020201 }, "geometry": { "type": "Point", "coordinates": [ 25.17037034493605, 40.955513149124684 ] } },
{ "type": "Feature", "properties": { "objectid": 13022.0, "point_x": 603138.75, "point_y": 4545462.5, "lat": 41.053867, "lon": 25.227346, "h": 17.0, "Name": "Καλλίστη,η", "Code": 101020401 }, "geometry": { "type": "Point", "coordinates": [ 25.229164704998738, 41.056422331292566 ] } },
{ "type": "Feature", "properties": { "objectid": 13027.0, "point_x": 608981.06, "point_y": 4551926.5, "lat": 41.11132, "lon": 25.297998, "h": 27.0, "Name": "Μελέτη,η", "Code": 101020501 }, "geometry": { "type": "Point", "coordinates": [ 25.29982049103371, 41.113873171708526 ] } },
{ "type": "Feature", "properties": { "objectid": 12674.0, "point_x": 601559.5, "point_y": 4537462.0, "lat": 40.98201, "lon": 25.207241, "h": 36.0, "Name": "Μέση,η", "Code": 101020601 }, "geometry": { "type": "Point", "coordinates": [ 25.209056600692588, 40.984566877742061 ] } },
{ "type": "Feature", "properties": { "objectid": 12689.0, "point_x": 601742.44, "point_y": 4543284.0, "lat": 41.034424, "lon": 25.210375, "h": 17.0, "Name": "Νέα Καλλίστη,η", "Code": 101020701 }, "geometry": { "type": "Point", "coordinates": [ 25.212191816592675, 41.036977773645944 ] } },
{ "type": "Feature", "properties": { "objectid": 13025.0, "point_x": 604076.94, "point_y": 4541374.0, "lat": 41.016926, "lon": 25.237818, "h": 36.0, "Name": "Πόρπη,η", "Code": 101020901 }, "geometry": { "type": "Point", "coordinates": [ 25.239636084286925, 41.019482510216712 ] } },
{ "type": "Feature", "properties": { "objectid": 12666.0, "point_x": 595109.75, "point_y": 4534689.0, "lat": 40.957817, "lon": 25.130161, "h": 16.0, "Name": "Φανάριον,το", "Code": 101021001 }, "geometry": { "type": "Point", "coordinates": [ 25.131973637430761, 40.96037311366576 ] } },
{ "type": "Feature", "properties": { "objectid": 12684.0, "point_x": 613762.1, "point_y": 4541988.5, "lat": 41.021168, "lon": 25.353092, "h": 18.0, "Name": "Νέον Σιδηροχώριον,το", "Code": 101030101 }, "geometry": { "type": "Point", "coordinates": [ 25.354912408293682, 41.023721442187266 ] } },
{ "type": "Feature", "properties": { "objectid": 13009.0, "point_x": 615014.6, "point_y": 4540709.0, "lat": 41.00947, "lon": 25.367746, "h": 20.0, "Name": "Αδριανή,η", "Code": 101030102 }, "geometry": { "type": "Point", "coordinates": [ 25.369567770101934, 41.012023581177353 ] } },
{ "type": "Feature", "properties": { "objectid": 13008.0, "point_x": 618286.9, "point_y": 4543657.5, "lat": 41.035553, "lon": 25.407213, "h": 41.0, "Name": "Μικρόν Δουκάτον,το", "Code": 101030105 }, "geometry": { "type": "Point", "coordinates": [ 25.409036873511241, 41.038107023061194 ] } },
{ "type": "Feature", "properties": { "objectid": 12693.0, "point_x": 617886.4, "point_y": 4544334.5, "lat": 41.041706, "lon": 25.40258, "h": 42.0, "Name": "Άγιοι Θεόδωροι,οι", "Code": 101030201 }, "geometry": { "type": "Point", "coordinates": [ 25.404403352633139, 41.044260584958295 ] } },
{ "type": "Feature", "properties": { "objectid": 13007.0, "point_x": 618777.6, "point_y": 4545039.5, "lat": 41.047928, "lon": 25.413317, "h": 35.0, "Name": "Μέγα Δουκάτον,το", "Code": 101030301 }, "geometry": { "type": "Point", "coordinates": [ 25.415139938967634, 41.050480262674235 ] } },
{ "type": "Feature", "properties": { "objectid": 13012.0, "point_x": 610625.2, "point_y": 4542708.0, "lat": 41.02808, "lon": 25.315918, "h": 20.0, "Name": "Παγούρια,τα", "Code": 101030401 }, "geometry": { "type": "Point", "coordinates": [ 25.317738944200162, 41.030633878328622 ] } },
{ "type": "Feature", "properties": { "objectid": 12719.0, "point_x": 636985.2, "point_y": 4553258.0, "lat": 41.11907, "lon": 25.631718, "h": 82.0, "Name": "Φιλλύρα,η", "Code": 102010101 }, "geometry": { "type": "Point", "coordinates": [ 25.633549862730536, 41.121617814925536 ] } },
{ "type": "Feature", "properties": { "objectid": 12703.0, "point_x": 630336.6, "point_y": 4548809.5, "lat": 41.080105, "lon": 25.551607, "h": 49.0, "Name": "Άρατος,ο", "Code": 102010401 }, "geometry": { "type": "Point", "coordinates": [ 25.553436059303571, 41.082656613291562 ] } },
{ "type": "Feature", "properties": { "objectid": 12988.0, "point_x": 629429.1, "point_y": 4547964.0, "lat": 41.072636, "lon": 25.54063, "h": 31.0, "Name": "Αρχοντικά,τα", "Code": 102010601 }, "geometry": { "type": "Point", "coordinates": [ 25.542458321477525, 41.075185985965241 ] } },
{ "type": "Feature", "properties": { "objectid": 12961.0, "point_x": 630873.56, "point_y": 4549709.5, "lat": 41.088127, "lon": 25.558187, "h": 38.0, "Name": "Βραγιά,η", "Code": 102010701 }, "geometry": { "type": "Point", "coordinates": [ 25.560017465265588, 41.090675577307756 ] } },
{ "type": "Feature", "properties": { "objectid": 12964.0, "point_x": 633924.4, "point_y": 4555058.0, "lat": 41.13579, "lon": 25.595665, "h": 120.0, "Name": "Δοκός,η", "Code": 102010801 }, "geometry": { "type": "Point", "coordinates": [ 25.597496329039821, 41.13833906906369 ] } },
{ "type": "Feature", "properties": { "objectid": 12966.0, "point_x": 630082.0, "point_y": 4555762.5, "lat": 41.142757, "lon": 25.550049, "h": 116.0, "Name": "Ομηρικόν,το", "Code": 102011601 }, "geometry": { "type": "Point", "coordinates": [ 25.551879963186991, 41.14530625965083 ] } },
{ "type": "Feature", "properties": { "objectid": 12706.0, "point_x": 642315.75, "point_y": 4548967.0, "lat": 41.079514, "lon": 25.694193, "h": 71.0, "Name": "Αρριανά,τα", "Code": 102020101 }, "geometry": { "type": "Point", "coordinates": [ 25.696026645717978, 41.082062667619219 ] } },
{ "type": "Feature", "properties": { "objectid": 12948.0, "point_x": 641049.0, "point_y": 4555834.5, "lat": 41.141575, "lon": 25.680696, "h": 121.0, "Name": "Δαρμένη,η", "Code": 102020301 }, "geometry": { "type": "Point", "coordinates": [ 25.682530482597315, 41.14412132120016 ] } },
{ "type": "Feature", "properties": { "objectid": 12958.0, "point_x": 641436.44, "point_y": 4547027.5, "lat": 41.062202, "lon": 25.683285, "h": 62.0, "Name": "Λύκειον,το", "Code": 102020701 }, "geometry": { "type": "Point", "coordinates": [ 25.685116638232696, 41.064752078446908 ] } },
{ "type": "Feature", "properties": { "objectid": 12950.0, "point_x": 640706.8, "point_y": 4553660.5, "lat": 41.12206, "lon": 25.676123, "h": 115.0, "Name": "Σκάλωμα,το", "Code": 102021301 }, "geometry": { "type": "Point", "coordinates": [ 25.677955621862882, 41.124606623662217 ] } },
{ "type": "Feature", "properties": { "objectid": 12743.0, "point_x": 655460.6, "point_y": 4566226.0, "lat": 41.232494, "lon": 25.854979, "h": 742.0, "Name": "Κέχρος,ο", "Code": 102030101 }, "geometry": { "type": "Point", "coordinates": [ 25.856820846817655, 41.235039917715511 ] } },
{ "type": "Feature", "properties": { "objectid": 12924.0, "point_x": 655338.9, "point_y": 4572217.5, "lat": 41.28646, "lon": 25.855053, "h": 722.0, "Name": "Χλόη,η", "Code": 102030111 }, "geometry": { "type": "Point", "coordinates": [ 25.856896086198919, 41.289005613831677 ] } },
{ "type": "Feature", "properties": { "objectid": 12933.0, "point_x": 635856.94, "point_y": 4570960.0, "lat": 41.278652, "lon": 25.622215, "h": 385.0, "Name": "Κάρδαμος,ο", "Code": 102040106 }, "geometry": { "type": "Point", "coordinates": [ 25.624051516192441, 41.281201255840237 ] } },
{ "type": "Feature", "properties": { "objectid": 12938.0, "point_x": 645099.1, "point_y": 4570237.5, "lat": 41.270542, "lon": 25.732353, "h": 661.0, "Name": "Σμιγάδα,η", "Code": 102040111 }, "geometry": { "type": "Point", "coordinates": [ 25.734193186156855, 41.273086328593706 ] } },
{ "type": "Feature", "properties": { "objectid": 13035.0, "point_x": 599251.2, "point_y": 4553411.5, "lat": 41.125942, "lon": 25.182377, "h": 36.0, "Name": "Ίασμος,ο", "Code": 103010101 }, "geometry": { "type": "Point", "coordinates": [ 25.18419578469878, 41.128495904117685 ] } },
{ "type": "Feature", "properties": { "objectid": 13036.0, "point_x": 601126.5, "point_y": 4551079.5, "lat": 41.10471, "lon": 25.204329, "h": 29.0, "Name": "Γαλήνη,η", "Code": 103010102 }, "geometry": { "type": "Point", "coordinates": [ 25.206147926120178, 41.107264152464161 ] } },
{ "type": "Feature", "properties": { "objectid": 13037.0, "point_x": 596391.25, "point_y": 4549134.0, "lat": 41.087765, "lon": 25.147642, "h": 23.0, "Name": "Διαλαμπή,η", "Code": 103010103 }, "geometry": { "type": "Point", "coordinates": [ 25.149459602072177, 41.09031927847316 ] } },
{ "type": "Feature", "properties": { "objectid": 13038.0, "point_x": 594091.8, "point_y": 4552298.0, "lat": 41.116528, "lon": 25.120754, "h": 29.0, "Name": "Κοπτερόν,το", "Code": 103010105 }, "geometry": { "type": "Point", "coordinates": [ 25.122571255325653, 41.119085057356585 ] } },
{ "type": "Feature", "properties": { "objectid": 13039.0, "point_x": 600464.4, "point_y": 4549499.5, "lat": 41.09056, "lon": 25.196188, "h": 21.0, "Name": "Μωσαϊκόν,το", "Code": 103010107 }, "geometry": { "type": "Point", "coordinates": [ 25.198005715224561, 41.093116348321701 ] } },
{ "type": "Feature", "properties": { "objectid": 12708.0, "point_x": 603624.7, "point_y": 4549192.5, "lat": 41.0874, "lon": 25.233757, "h": 27.0, "Name": "Αμβροσία,η", "Code": 103010201 }, "geometry": { "type": "Point", "coordinates": [ 25.235575594587019, 41.08995470361031 ] } },
{ "type": "Feature", "properties": { "objectid": 13023.0, "point_x": 603977.94, "point_y": 4546629.0, "lat": 41.064266, "lon": 25.237528, "h": 19.0, "Name": "Μικρόν Παλλάδιον,το", "Code": 103010202 }, "geometry": { "type": "Point", "coordinates": [ 25.239346825150548, 41.066821891629857 ] } },
{ "type": "Feature", "properties": { "objectid": 12695.0, "point_x": 600003.7, "point_y": 4544931.5, "lat": 41.049477, "lon": 25.18996, "h": 19.0, "Name": "Σάλπη,η", "Code": 103010301 }, "geometry": { "type": "Point", "coordinates": [ 25.191777771019012, 41.052031133983206 ] } },
{ "type": "Feature", "properties": { "objectid": 13026.0, "point_x": 599772.4, "point_y": 4540703.5, "lat": 41.01143, "lon": 25.186525, "h": 14.0, "Name": "Γλυκονέριον,το", "Code": 103010302 }, "geometry": { "type": "Point", "coordinates": [ 25.188341358780747, 41.013984095688429 ] } },
{ "type": "Feature", "properties": { "objectid": 12968.0, "point_x": 588974.3, "point_y": 4553219.0, "lat": 41.1254, "lon": 25.059942, "h": 55.0, "Name": "Άνω Αμαξάδες,οι", "Code": 103020102 }, "geometry": { "type": "Point", "coordinates": [ 25.061757114832396, 41.127957227396266 ] } },
{ "type": "Feature", "properties": { "objectid": 12724.0, "point_x": 607096.06, "point_y": 4554412.0, "lat": 41.133957, "lon": 25.275986, "h": 61.0, "Name": "Σώστης,ο", "Code": 103030101 }, "geometry": { "type": "Point", "coordinates": [ 25.277808368638318, 41.136509767664272 ] } },
{ "type": "Feature", "properties": { "objectid": 12732.0, "point_x": 614816.7, "point_y": 4557818.5, "lat": 41.163574, "lon": 25.368587, "h": 105.0, "Name": "Αγίασμα,το", "Code": 103030201 }, "geometry": { "type": "Point", "coordinates": [ 25.370412326490619, 41.166127606175607 ] } },
{ "type": "Feature", "properties": { "objectid": 12976.0, "point_x": 612544.0, "point_y": 4556821.0, "lat": 41.15491, "lon": 25.34132, "h": 85.0, "Name": "Ασώματοι,οι", "Code": 103030202 }, "geometry": { "type": "Point", "coordinates": [ 25.343144948950648, 41.157463507327662 ] } },
{ "type": "Feature", "properties": { "objectid": 12978.0, "point_x": 613880.9, "point_y": 4557510.0, "lat": 41.16093, "lon": 25.357378, "h": 107.0, "Name": "Θάμνα,τα", "Code": 103030204 }, "geometry": { "type": "Point", "coordinates": [ 25.359202755218458, 41.163481481402904 ] } },
{ "type": "Feature", "properties": { "objectid": 12980.0, "point_x": 612266.3, "point_y": 4556204.0, "lat": 41.14939, "lon": 25.337898, "h": 69.0, "Name": "Ρίζωμα,το", "Code": 103030206 }, "geometry": { "type": "Point", "coordinates": [ 25.339723324308228, 41.151945416477311 ] } },
{ "type": "Feature", "properties": { "objectid": 12981.0, "point_x": 617079.1, "point_y": 4557839.0, "lat": 41.163437, "lon": 25.395552, "h": 81.0, "Name": "Φωλέα,η", "Code": 103030207 }, "geometry": { "type": "Point", "coordinates": [ 25.397377208144814, 41.165988854007985 ] } },
{ "type": "Feature", "properties": { "objectid": 12970.0, "point_x": 605677.9, "point_y": 4554129.0, "lat": 41.131596, "lon": 25.259045, "h": 72.0, "Name": "Ληνός,ο", "Code": 103030401 }, "geometry": { "type": "Point", "coordinates": [ 25.260866350261111, 41.134148047482164 ] } },
{ "type": "Feature", "properties": { "objectid": 12974.0, "point_x": 609055.8, "point_y": 4555514.0, "lat": 41.14362, "lon": 25.299526, "h": 89.0, "Name": "Μέγα Πιστόν,το", "Code": 103030501 }, "geometry": { "type": "Point", "coordinates": [ 25.301349080183559, 41.146171757466121 ] } },
{ "type": "Feature", "properties": { "objectid": 12975.0, "point_x": 610574.44, "point_y": 4556426.5, "lat": 41.15163, "lon": 25.317781, "h": 106.0, "Name": "Μίσχος,ο", "Code": 103030601 }, "geometry": { "type": "Point", "coordinates": [ 25.319606006798001, 41.154182802165145 ] } },
{ "type": "Feature", "properties": { "objectid": 12686.0, "point_x": 642402.2, "point_y": 4542618.5, "lat": 41.022335, "lon": 25.693754, "h": 116.0, "Name": "Σάπαι,οι", "Code": 104010101 }, "geometry": { "type": "Point", "coordinates": [ 25.695586391213887, 41.024884733123272 ] } },
{ "type": "Feature", "properties": { "objectid": 12990.0, "point_x": 641088.6, "point_y": 4541554.0, "lat": 41.012978, "lon": 25.677895, "h": 96.0, "Name": "Αρσάκειον,το", "Code": 104010103 }, "geometry": { "type": "Point", "coordinates": [ 25.679725283063515, 41.015528030288991 ] } },
{ "type": "Feature", "properties": { "objectid": 12992.0, "point_x": 638910.5, "point_y": 4537673.0, "lat": 40.97841, "lon": 25.651129, "h": 78.0, "Name": "Βέλκιον,το", "Code": 104010104 }, "geometry": { "type": "Point", "coordinates": [ 25.652957778801625, 40.980956572507409 ] } },
{ "type": "Feature", "properties": { "objectid": 12995.0, "point_x": 636139.4, "point_y": 4547459.0, "lat": 41.066994, "lon": 25.620361, "h": 29.0, "Name": "Πρωτάτον,το", "Code": 104010106 }, "geometry": { "type": "Point", "coordinates": [ 25.622192519629412, 41.069543661069858 ] } },
{ "type": "Feature", "properties": { "objectid": 12700.0, "point_x": 633475.8, "point_y": 4547511.5, "lat": 41.06791, "lon": 25.588684, "h": 40.0, "Name": "Αρίσβη,η", "Code": 104010301 }, "geometry": { "type": "Point", "coordinates": [ 25.590512865088684, 41.07045688020154 ] } },
{ "type": "Feature", "properties": { "objectid": 12954.0, "point_x": 644120.4, "point_y": 4548187.5, "lat": 41.07218, "lon": 25.715485, "h": 59.0, "Name": "Ιάσιον,το", "Code": 104010501 }, "geometry": { "type": "Point", "coordinates": [ 25.717318521279246, 41.07472867282592 ] } },
{ "type": "Feature", "properties": { "objectid": 12665.0, "point_x": 631086.6, "point_y": 4535015.5, "lat": 40.955776, "lon": 25.557602, "h": 108.0, "Name": "Κρωβύλη,η", "Code": 104010701 }, "geometry": { "type": "Point", "coordinates": [ 25.559428410851478, 40.958325692404351 ] } },
{ "type": "Feature", "properties": { "objectid": 12688.0, "point_x": 632003.4, "point_y": 4543084.0, "lat": 41.028282, "lon": 25.570215, "h": 38.0, "Name": "Λοφάριον,το", "Code": 104010801 }, "geometry": { "type": "Point", "coordinates": [ 25.572043330611059, 41.030831801961348 ] } },
{ "type": "Feature", "properties": { "objectid": 12989.0, "point_x": 634671.0, "point_y": 4540958.0, "lat": 41.0087, "lon": 25.601473, "h": 64.0, "Name": "Αετόλοφος,ο", "Code": 104010802 }, "geometry": { "type": "Point", "coordinates": [ 25.603300511091323, 41.011250045943967 ] } },
{ "type": "Feature", "properties": { "objectid": 12714.0, "point_x": 647831.3, "point_y": 4551317.5, "lat": 41.099693, "lon": 25.76039, "h": 150.0, "Name": "Νέα Σάντα,η", "Code": 104010901 }, "geometry": { "type": "Point", "coordinates": [ 25.762225070439502, 41.102240554209757 ] } },
{ "type": "Feature", "properties": { "objectid": 12676.0, "point_x": 629495.6, "point_y": 4538331.5, "lat": 40.985886, "lon": 25.539398, "h": 159.0, "Name": "Στρύμη,η", "Code": 104011001 }, "geometry": { "type": "Point", "coordinates": [ 25.541224919533313, 40.988437760403464 ] } },
{ "type": "Feature", "properties": { "objectid": 12671.0, "point_x": 619448.2, "point_y": 4536557.0, "lat": 40.97144, "lon": 25.419653, "h": 41.0, "Name": "Ξυλαγανή,η", "Code": 104020101 }, "geometry": { "type": "Point", "coordinates": [ 25.421474077070052, 40.973992694016047 ] } },
{ "type": "Feature", "properties": { "objectid": 12696.0, "point_x": 625760.3, "point_y": 4545213.0, "lat": 41.04844, "lon": 25.496412, "h": 20.0, "Name": "Αμάραντα,τα", "Code": 104020201 }, "geometry": { "type": "Point", "coordinates": [ 25.498237940416207, 41.05099038232769 ] } },
{ "type": "Feature", "properties": { "objectid": 12997.0, "point_x": 628221.94, "point_y": 4547511.5, "lat": 41.068752, "lon": 25.52617, "h": 35.0, "Name": "Βάκος,ο", "Code": 104020202 }, "geometry": { "type": "Point", "coordinates": [ 25.527998332836518, 41.071304105484423 ] } },
{ "type": "Feature", "properties": { "objectid": 13000.0, "point_x": 622994.3, "point_y": 4545233.5, "lat": 41.04905, "lon": 25.463512, "h": 13.0, "Name": "Καλλιθέα,η", "Code": 104020204 }, "geometry": { "type": "Point", "coordinates": [ 25.465338626341794, 41.051600441166485 ] } },
{ "type": "Feature", "properties": { "objectid": 12667.0, "point_x": 615147.6, "point_y": 4534610.0, "lat": 40.954525, "lon": 25.36819, "h": 21.0, "Name": "Ίμερος,ο", "Code": 104020301 }, "geometry": { "type": "Point", "coordinates": [ 25.370011124224241, 40.957078140746525 ] } },
{ "type": "Feature", "properties": { "objectid": 12657.0, "point_x": 627818.6, "point_y": 4529200.5, "lat": 40.903923, "lon": 25.517586, "h": 185.0, "Name": "Μαρώνεια,η", "Code": 104020401 }, "geometry": { "type": "Point", "coordinates": [ 25.519409151758829, 40.906475520574276 ] } },
{ "type": "Feature", "properties": { "objectid": 12898.0, "point_x": 627165.2, "point_y": 4525602.0, "lat": 40.87162, "lon": 25.509094, "h": 0.0, "Name": "Άγιος Χαράλαμπος,ο", "Code": 104020402 }, "geometry": { "type": "Point", "coordinates": [ 25.510915660212177, 40.874172662107625 ] } },
{ "type": "Feature", "properties": { "objectid": 13033.0, "point_x": 627211.8, "point_y": 4541003.5, "lat": 41.010307, "lon": 25.51281, "h": 46.0, "Name": "Βέννα,η", "Code": 104020502 }, "geometry": { "type": "Point", "coordinates": [ 25.514634816147037, 41.012858302286162 ] } },
{ "type": "Feature", "properties": { "objectid": 12664.0, "point_x": 623892.06, "point_y": 4533172.0, "lat": 40.940296, "lon": 25.471775, "h": 116.0, "Name": "Προσκυνηταί,οι", "Code": 104020701 }, "geometry": { "type": "Point", "coordinates": [ 25.473596992736041, 40.942847432117496 ] } },
{ "type": "Feature", "properties": { "objectid": 12904.0, "point_x": 620162.25, "point_y": 4528942.5, "lat": 40.902763, "lon": 25.42666, "h": 5.0, "Name": "Κρυονέρι,το", "Code": 104020704 }, "geometry": { "type": "Point", "coordinates": [ 25.42848049374652, 40.905316665881628 ] } },
{ "type": "Feature", "properties": { "objectid": 12906.0, "point_x": 617160.1, "point_y": 4529210.0, "lat": 40.905605, "lon": 25.391077, "h": 3.0, "Name": "Προφήτης Ηλίας,ο", "Code": 104020706 }, "geometry": { "type": "Point", "coordinates": [ 25.392896628471174, 40.908160838549122 ] } },
{ "type": "Feature", "properties": { "objectid": 7130.0, "point_x": 512119.1, "point_y": 4555138.5, "lat": 41.147476, "lon": 24.144423, "h": 101.0, "Name": "Δράμα,η", "Code": 201010101 }, "geometry": { "type": "Point", "coordinates": [ 24.146209943139493, 41.15004915157752 ] } },
{ "type": "Feature", "properties": { "objectid": 7302.0, "point_x": 507634.78, "point_y": 4551450.5, "lat": 41.114307, "lon": 24.090939, "h": 79.0, "Name": "Αμπελάκια,τα", "Code": 201010102 }, "geometry": { "type": "Point", "coordinates": [ 24.0927221395388, 41.116880301927516 ] } },
{ "type": "Feature", "properties": { "objectid": 7303.0, "point_x": 510700.84, "point_y": 4552156.0, "lat": 41.120632, "lon": 24.12747, "h": 80.0, "Name": "Νέα Σεβάστεια,η", "Code": 201010103 }, "geometry": { "type": "Point", "coordinates": [ 24.129255608084957, 41.123202403162104 ] } },
{ "type": "Feature", "properties": { "objectid": 7140.0, "point_x": 517819.75, "point_y": 4557597.0, "lat": 41.169518, "lon": 24.21243, "h": 206.0, "Name": "Καλλίφυτος,η", "Code": 201010201 }, "geometry": { "type": "Point", "coordinates": [ 24.214218394857081, 41.172087894060091 ] } },
{ "type": "Feature", "properties": { "objectid": 7332.0, "point_x": 514572.3, "point_y": 4555537.0, "lat": 41.151024, "lon": 24.173668, "h": 141.0, "Name": "Πανόραμα,το", "Code": 201010202 }, "geometry": { "type": "Point", "coordinates": [ 24.175455285062984, 41.153595952145473 ] } },
{ "type": "Feature", "properties": { "objectid": 7092.0, "point_x": 507002.1, "point_y": 4550238.0, "lat": 41.103394, "lon": 24.083387, "h": 73.0, "Name": "Καλός Αγρός,ο", "Code": 201010301 }, "geometry": { "type": "Point", "coordinates": [ 24.085171852785159, 41.105964792483242 ] } },
{ "type": "Feature", "properties": { "objectid": 7081.0, "point_x": 509523.88, "point_y": 4549396.5, "lat": 41.095783, "lon": 24.113407, "h": 68.0, "Name": "Κουδούνια,τα", "Code": 201010401 }, "geometry": { "type": "Point", "coordinates": [ 24.115191312737434, 41.098357569302912 ] } },
{ "type": "Feature", "properties": { "objectid": 7190.0, "point_x": 517396.97, "point_y": 4569886.5, "lat": 41.280228, "lon": 24.207739, "h": 647.0, "Name": "Λιβαδερόν,το", "Code": 201010501 }, "geometry": { "type": "Point", "coordinates": [ 24.209531413391424, 41.282796447251961 ] } },
{ "type": "Feature", "properties": { "objectid": 7167.0, "point_x": 521850.2, "point_y": 4563477.5, "lat": 41.222385, "lon": 24.260685, "h": 736.0, "Name": "Μακρυπλάγιον,το", "Code": 201010601 }, "geometry": { "type": "Point", "coordinates": [ 24.262477914374326, 41.224955740969953 ] } },
{ "type": "Feature", "properties": { "objectid": 7099.0, "point_x": 511920.8, "point_y": 4550833.0, "lat": 41.108696, "lon": 24.141977, "h": 80.0, "Name": "Μαυρόβατος,ο", "Code": 201010701 }, "geometry": { "type": "Point", "coordinates": [ 24.143762500668316, 41.111266933136399 ] } },
{ "type": "Feature", "properties": { "objectid": 7089.0, "point_x": 514703.72, "point_y": 4549818.0, "lat": 41.099506, "lon": 24.175097, "h": 83.0, "Name": "Μικροχώριον,το", "Code": 201010801 }, "geometry": { "type": "Point", "coordinates": [ 24.176883223021118, 41.102075945989348 ] } },
{ "type": "Feature", "properties": { "objectid": 7151.0, "point_x": 514062.12, "point_y": 4559352.0, "lat": 41.1854, "lon": 24.167675, "h": 301.0, "Name": "Μοναστηράκιον,το", "Code": 201010901 }, "geometry": { "type": "Point", "coordinates": [ 24.169463559147729, 41.187969980145553 ] } },
{ "type": "Feature", "properties": { "objectid": 7129.0, "point_x": 505939.7, "point_y": 4554951.5, "lat": 41.14586, "lon": 24.070782, "h": 99.0, "Name": "Μυλοπόταμος,ο", "Code": 201011001 }, "geometry": { "type": "Point", "coordinates": [ 24.072565963228094, 41.148432899976939 ] } },
{ "type": "Feature", "properties": { "objectid": 7154.0, "point_x": 508555.56, "point_y": 4559910.5, "lat": 41.190506, "lon": 24.102024, "h": 254.0, "Name": "Ξηροπόταμος,ο", "Code": 201011201 }, "geometry": { "type": "Point", "coordinates": [ 24.103809975716068, 41.193077780126558 ] } },
{ "type": "Feature", "properties": { "objectid": 7299.0, "point_x": 509189.44, "point_y": 4555660.0, "lat": 41.15221, "lon": 24.109518, "h": 125.0, "Name": "Μεταμόρφωσις Σωτήρος,η", "Code": 201011202 }, "geometry": { "type": "Point", "coordinates": [ 24.111304187004787, 41.154783061552848 ] } },
{ "type": "Feature", "properties": { "objectid": 7114.0, "point_x": 517372.6, "point_y": 4552977.5, "lat": 41.127914, "lon": 24.206968, "h": 119.0, "Name": "Χωριστή,η", "Code": 201011301 }, "geometry": { "type": "Point", "coordinates": [ 24.208755999573953, 41.130484492136134 ] } },
{ "type": "Feature", "properties": { "objectid": 7296.0, "point_x": 518086.94, "point_y": 4582809.5, "lat": 41.396618, "lon": 24.216362, "h": 649.0, "Name": "Καλλίκαρπον,το", "Code": 201020102 }, "geometry": { "type": "Point", "coordinates": [ 24.218158893123082, 41.399185583815949 ] } },
{ "type": "Feature", "properties": { "objectid": 7033.0, "point_x": 515662.38, "point_y": 4544259.0, "lat": 41.04941, "lon": 24.18637, "h": 81.0, "Name": "Καλαμπάκιον,το", "Code": 202010101 }, "geometry": { "type": "Point", "coordinates": [ 24.188156403278782, 41.051984883118656 ] } },
{ "type": "Feature", "properties": { "objectid": 7000.0, "point_x": 513250.06, "point_y": 4540744.5, "lat": 41.01779, "lon": 24.15759, "h": 58.0, "Name": "Αγία Παρασκευή,η", "Code": 202010201 }, "geometry": { "type": "Point", "coordinates": [ 24.159374417157011, 41.020365721300649 ] } },
{ "type": "Feature", "properties": { "objectid": 6985.0, "point_x": 517532.56, "point_y": 4539829.5, "lat": 41.00947, "lon": 24.208498, "h": 66.0, "Name": "Καλαμών,ο", "Code": 202010301 }, "geometry": { "type": "Point", "coordinates": [ 24.210284060113668, 41.012044424906378 ] } },
{ "type": "Feature", "properties": { "objectid": 7024.0, "point_x": 510929.34, "point_y": 4543491.0, "lat": 41.042572, "lon": 24.130037, "h": 60.0, "Name": "Νεροφράκτης,ο", "Code": 202010401 }, "geometry": { "type": "Point", "coordinates": [ 24.131821337633035, 41.045143591842354 ] } },
{ "type": "Feature", "properties": { "objectid": 7061.0, "point_x": 515790.84, "point_y": 4547562.0, "lat": 41.079163, "lon": 24.187984, "h": 78.0, "Name": "Φτελιά,η", "Code": 202010501 }, "geometry": { "type": "Point", "coordinates": [ 24.189770593561757, 41.08173532075363 ] } },
{ "type": "Feature", "properties": { "objectid": 7077.0, "point_x": 524349.3, "point_y": 4548524.0, "lat": 41.08762, "lon": 24.289907, "h": 170.0, "Name": "Βαθύσπηλον,το", "Code": 202020101 }, "geometry": { "type": "Point", "coordinates": [ 24.29169696065135, 41.090188646248869 ] } },
{ "type": "Feature", "properties": { "objectid": 7349.0, "point_x": 524014.28, "point_y": 4550508.0, "lat": 41.105503, "lon": 24.285995, "h": 142.0, "Name": "Βαθυχώριον,το", "Code": 202020102 }, "geometry": { "type": "Point", "coordinates": [ 24.287785765320429, 41.108071257864019 ] } },
{ "type": "Feature", "properties": { "objectid": 7083.0, "point_x": 524210.7, "point_y": 4549478.0, "lat": 41.096214, "lon": 24.288294, "h": 152.0, "Name": "Κύρια,τα", "Code": 202020104 }, "geometry": { "type": "Point", "coordinates": [ 24.290084094306923, 41.098785902402149 ] } },
{ "type": "Feature", "properties": { "objectid": 7052.0, "point_x": 520498.6, "point_y": 4546688.5, "lat": 41.07119, "lon": 24.244, "h": 104.0, "Name": "Άγιος Αθανάσιος,ο", "Code": 202020201 }, "geometry": { "type": "Point", "coordinates": [ 24.245786896347017, 41.073760200433796 ] } },
{ "type": "Feature", "properties": { "objectid": 7076.0, "point_x": 519179.12, "point_y": 4548807.5, "lat": 41.09031, "lon": 24.22836, "h": 100.0, "Name": "Δοξάτον,το", "Code": 202020401 }, "geometry": { "type": "Point", "coordinates": [ 24.230147335023386, 41.092881391399764 ] } },
{ "type": "Feature", "properties": { "objectid": 7044.0, "point_x": 522548.75, "point_y": 4545295.0, "lat": 41.058582, "lon": 24.26835, "h": 91.0, "Name": "Άνω Κεφαλάριον,το", "Code": 202020501 }, "geometry": { "type": "Point", "coordinates": [ 24.27013934084513, 41.061154294413157 ] } },
{ "type": "Feature", "properties": { "objectid": 7348.0, "point_x": 521356.94, "point_y": 4545785.5, "lat": 41.063034, "lon": 24.254185, "h": 87.0, "Name": "Κάτω Κεφαλάριον,το", "Code": 202020502 }, "geometry": { "type": "Point", "coordinates": [ 24.255972662031191, 41.065605468716875 ] } },
{ "type": "Feature", "properties": { "objectid": 7107.0, "point_x": 525503.4, "point_y": 4551607.0, "lat": 41.115353, "lon": 24.303776, "h": 211.0, "Name": "Πηγάδια,τα", "Code": 202020601 }, "geometry": { "type": "Point", "coordinates": [ 24.305566419908288, 41.117923606524158 ] } },
{ "type": "Feature", "properties": { "objectid": 7203.0, "point_x": 488777.84, "point_y": 4576578.0, "lat": 41.34061, "lon": 23.865871, "h": 555.0, "Name": "Κάτω Νευροκόπιον,το", "Code": 203000101 }, "geometry": { "type": "Point", "coordinates": [ 23.867654723195738, 41.343185916208526 ] } },
{ "type": "Feature", "properties": { "objectid": 7201.0, "point_x": 500027.8, "point_y": 4573650.0, "lat": 41.314316, "lon": 24.000332, "h": 825.0, "Name": "Βώλαξ,ο", "Code": 203000401 }, "geometry": { "type": "Point", "coordinates": [ 24.00211920476756, 41.316887627919577 ] } },
{ "type": "Feature", "properties": { "objectid": 7192.0, "point_x": 494359.22, "point_y": 4570372.0, "lat": 41.284767, "lon": 23.932638, "h": 770.0, "Name": "Γρανίτης,ο", "Code": 203000501 }, "geometry": { "type": "Point", "coordinates": [ 23.934421916750804, 41.287342399896879 ] } },
{ "type": "Feature", "properties": { "objectid": 7204.0, "point_x": 483178.88, "point_y": 4577198.0, "lat": 41.346096, "lon": 23.798935, "h": 642.0, "Name": "Δασωτόν,το", "Code": 203000601 }, "geometry": { "type": "Point", "coordinates": [ 23.800716069295738, 41.348673251476974 ] } },
{ "type": "Feature", "properties": { "objectid": 7218.0, "point_x": 485309.6, "point_y": 4584184.5, "lat": 41.40907, "lon": 23.824234, "h": 619.0, "Name": "Εξοχή,η", "Code": 203000701 }, "geometry": { "type": "Point", "coordinates": [ 23.826018251122694, 41.411644738642529 ] } },
{ "type": "Feature", "properties": { "objectid": 7186.0, "point_x": 479091.1, "point_y": 4569021.5, "lat": 41.272354, "lon": 23.750355, "h": 661.0, "Name": "Κάτω Βροντού,η", "Code": 203000901 }, "geometry": { "type": "Point", "coordinates": [ 23.752132301310905, 41.274928891642524 ] } },
{ "type": "Feature", "properties": { "objectid": 7216.0, "point_x": 491128.2, "point_y": 4583480.0, "lat": 41.40281, "lon": 23.893862, "h": 600.0, "Name": "Λευκόγεια,τα", "Code": 203001001 }, "geometry": { "type": "Point", "coordinates": [ 23.895647788462639, 41.405383003907907 ] } },
{ "type": "Feature", "properties": { "objectid": 7199.0, "point_x": 487238.22, "point_y": 4572161.5, "lat": 41.300808, "lon": 23.847563, "h": 535.0, "Name": "Οχυρόν,το", "Code": 203001301 }, "geometry": { "type": "Point", "coordinates": [ 23.849343837880117, 41.30338304440717 ] } },
{ "type": "Feature", "properties": { "objectid": 7200.0, "point_x": 481156.53, "point_y": 4573368.5, "lat": 41.311558, "lon": 23.774881, "h": 619.0, "Name": "Περιθώριον,το", "Code": 203001501 }, "geometry": { "type": "Point", "coordinates": [ 23.776660220291681, 41.314135324875934 ] } },
{ "type": "Feature", "properties": { "objectid": 7211.0, "point_x": 488785.06, "point_y": 4580249.5, "lat": 41.373684, "lon": 23.86589, "h": 582.0, "Name": "Χρυσοκέφαλος,ο", "Code": 203001701 }, "geometry": { "type": "Point", "coordinates": [ 23.86767406655385, 41.376257680005459 ] } },
{ "type": "Feature", "properties": { "objectid": 7183.0, "point_x": 541691.9, "point_y": 4568043.5, "lat": 41.26274, "lon": 24.497713, "h": 119.0, "Name": "Παρανέστιον,το", "Code": 204010101 }, "geometry": { "type": "Point", "coordinates": [ 24.499515042339304, 41.265304541213766 ] } },
{ "type": "Feature", "properties": { "objectid": 7120.0, "point_x": 522297.47, "point_y": 4553511.0, "lat": 41.1326, "lon": 24.26566, "h": 162.0, "Name": "Αδριανή,η", "Code": 204020201 }, "geometry": { "type": "Point", "coordinates": [ 24.26744888532755, 41.135167159027198 ] } },
{ "type": "Feature", "properties": { "objectid": 7143.0, "point_x": 497455.44, "point_y": 4558292.5, "lat": 41.175972, "lon": 23.969664, "h": 130.0, "Name": "Προσοτσάνη,η", "Code": 205010101 }, "geometry": { "type": "Point", "coordinates": [ 23.971445623486012, 41.178545417874041 ] } },
{ "type": "Feature", "properties": { "objectid": 7118.0, "point_x": 493594.8, "point_y": 4553293.0, "lat": 41.130917, "lon": 23.923689, "h": 168.0, "Name": "Ανθοχώριον,το", "Code": 205010201 }, "geometry": { "type": "Point", "coordinates": [ 23.925468030170254, 41.133493143325381 ] } },
{ "type": "Feature", "properties": { "objectid": 7124.0, "point_x": 492003.03, "point_y": 4554467.0, "lat": 41.141476, "lon": 23.904709, "h": 278.0, "Name": "Καλή Βρύση,η", "Code": 205010401 }, "geometry": { "type": "Point", "coordinates": [ 23.906488176325762, 41.144052289057178 ] } },
{ "type": "Feature", "properties": { "objectid": 7153.0, "point_x": 494228.7, "point_y": 4559699.0, "lat": 41.188625, "lon": 23.931181, "h": 143.0, "Name": "Κοκκινόγεια,τα", "Code": 205010601 }, "geometry": { "type": "Point", "coordinates": [ 23.932961556352669, 41.191200868602209 ] } },
{ "type": "Feature", "properties": { "objectid": 7152.0, "point_x": 484533.22, "point_y": 4559995.5, "lat": 41.19117, "lon": 23.81556, "h": 354.0, "Name": "Μικρόπολις,η", "Code": 205010701 }, "geometry": { "type": "Point", "coordinates": [ 23.817337780401076, 41.193744915488892 ] } },
{ "type": "Feature", "properties": { "objectid": 7157.0, "point_x": 501287.7, "point_y": 4560257.5, "lat": 41.193676, "lon": 24.015356, "h": 264.0, "Name": "Πετρούσσα,η", "Code": 205010901 }, "geometry": { "type": "Point", "coordinates": [ 24.017140361030293, 41.196250318222347 ] } },
{ "type": "Feature", "properties": { "objectid": 7294.0, "point_x": 503606.44, "point_y": 4557226.5, "lat": 41.166367, "lon": 24.04299, "h": 123.0, "Name": "Σταυρός,ο", "Code": 205010902 }, "geometry": { "type": "Point", "coordinates": [ 24.044774477566921, 41.168939953599306 ] } },
{ "type": "Feature", "properties": { "objectid": 7136.0, "point_x": 487385.34, "point_y": 4556772.0, "lat": 41.16218, "lon": 23.849638, "h": 307.0, "Name": "Χαριτωμένη,η", "Code": 205011101 }, "geometry": { "type": "Point", "coordinates": [ 23.851415714372525, 41.164756362517579 ] } },
{ "type": "Feature", "properties": { "objectid": 7041.0, "point_x": 503760.56, "point_y": 4545140.5, "lat": 41.057495, "lon": 24.044754, "h": 60.0, "Name": "Φωτολίβος,το", "Code": 205020101 }, "geometry": { "type": "Point", "coordinates": [ 24.046534729758992, 41.060068483254042 ] } },
{ "type": "Feature", "properties": { "objectid": 7035.0, "point_x": 508312.0, "point_y": 4544576.5, "lat": 41.05238, "lon": 24.098911, "h": 59.0, "Name": "Μαυρολεύκη,η", "Code": 205020301 }, "geometry": { "type": "Point", "coordinates": [ 24.10069421653531, 41.054952885863855 ] } },
{ "type": "Feature", "properties": { "objectid": 7096.0, "point_x": 502213.78, "point_y": 4550744.5, "lat": 41.107983, "lon": 24.026365, "h": 75.0, "Name": "Σιταγροί,οι", "Code": 205020701 }, "geometry": { "type": "Point", "coordinates": [ 24.028147817993947, 41.110556752072135 ] } },
{ "type": "Feature", "properties": { "objectid": 12651.0, "point_x": 657967.56, "point_y": 4523060.5, "lat": 40.84338, "lon": 25.873817, "h": 43.0, "Name": "Αλεξανδρούπολις,η", "Code": 301010101 }, "geometry": { "type": "Point", "coordinates": [ 25.875650540955856, 40.845925302451469 ] } },
{ "type": "Feature", "properties": { "objectid": 12838.0, "point_x": 666286.8, "point_y": 4527336.5, "lat": 40.880234, "lon": 25.97359, "h": 55.0, "Name": "Αγνάντια,η", "Code": 301010102 }, "geometry": { "type": "Point", "coordinates": [ 25.975426329449963, 40.882778137624065 ] } },
{ "type": "Feature", "properties": { "objectid": 12663.0, "point_x": 661076.8, "point_y": 4532748.5, "lat": 40.93, "lon": 25.913193, "h": 103.0, "Name": "Άβας,ο", "Code": 301010201 }, "geometry": { "type": "Point", "coordinates": [ 25.915027869377123, 40.932545324402 ] } },
{ "type": "Feature", "properties": { "objectid": 12685.0, "point_x": 664245.56, "point_y": 4542193.5, "lat": 41.014404, "lon": 25.953316, "h": 323.0, "Name": "Αισύμη,η", "Code": 301010301 }, "geometry": { "type": "Point", "coordinates": [ 25.955155242279361, 41.016946627868911 ] } },
{ "type": "Feature", "properties": { "objectid": 12652.0, "point_x": 647011.2, "point_y": 4523651.0, "lat": 40.850735, "lon": 25.744053, "h": 62.0, "Name": "Μάκρη,η", "Code": 301010501 }, "geometry": { "type": "Point", "coordinates": [ 25.745880641832656, 40.853283617255194 ] } },
{ "type": "Feature", "properties": { "objectid": 12886.0, "point_x": 642805.2, "point_y": 4524820.5, "lat": 40.862007, "lon": 25.694445, "h": 36.0, "Name": "Δίκελλα,τα", "Code": 301010502 }, "geometry": { "type": "Point", "coordinates": [ 25.6962717068083, 40.864555657894989 ] } },
{ "type": "Feature", "properties": { "objectid": 12887.0, "point_x": 649178.25, "point_y": 4523787.5, "lat": 40.85157, "lon": 25.769783, "h": 22.0, "Name": "Έννατο,το", "Code": 301010503 }, "geometry": { "type": "Point", "coordinates": [ 25.771611530471795, 40.854119049406883 ] } },
{ "type": "Feature", "properties": { "objectid": 12673.0, "point_x": 644495.25, "point_y": 4536904.5, "lat": 40.97052, "lon": 25.717302, "h": 191.0, "Name": "Συκορράχη,η", "Code": 301010601 }, "geometry": { "type": "Point", "coordinates": [ 25.719134096483995, 40.973066993361563 ] } },
{ "type": "Feature", "properties": { "objectid": 12897.0, "point_x": 638492.8, "point_y": 4534530.5, "lat": 40.950184, "lon": 25.645462, "h": 111.0, "Name": "Μέστη,η", "Code": 301010605 }, "geometry": { "type": "Point", "coordinates": [ 25.647291109965082, 40.952731880429532 ] } },
{ "type": "Feature", "properties": { "objectid": 12654.0, "point_x": 668178.9, "point_y": 4526272.0, "lat": 40.870262, "lon": 25.995745, "h": 21.0, "Name": "Αρίστηνον,το", "Code": 301020101 }, "geometry": { "type": "Point", "coordinates": [ 25.997582022496793, 40.87280621279821 ] } },
{ "type": "Feature", "properties": { "objectid": 12653.0, "point_x": 667482.25, "point_y": 4525981.0, "lat": 40.867783, "lon": 25.987406, "h": 20.0, "Name": "Άνθεια,η", "Code": 301020102 }, "geometry": { "type": "Point", "coordinates": [ 25.989241288629128, 40.870326711167216 ] } },
{ "type": "Feature", "properties": { "objectid": 12658.0, "point_x": 666390.0, "point_y": 4530178.0, "lat": 40.905792, "lon": 25.975574, "h": 99.0, "Name": "Δωρικόν,το", "Code": 301020201 }, "geometry": { "type": "Point", "coordinates": [ 25.977412414979852, 40.908335507452165 ] } },
{ "type": "Feature", "properties": { "objectid": 12655.0, "point_x": 672236.44, "point_y": 4527415.0, "lat": 40.879707, "lon": 26.044184, "h": 39.0, "Name": "Λουτρός,ο", "Code": 301020301 }, "geometry": { "type": "Point", "coordinates": [ 26.04602145241763, 40.88224992084421 ] } },
{ "type": "Feature", "properties": { "objectid": 12825.0, "point_x": 671267.06, "point_y": 4525485.0, "lat": 40.862537, "lon": 26.032154, "h": 19.0, "Name": "Λουτρά Τραϊανουπόλεως,τα", "Code": 301020302 }, "geometry": { "type": "Point", "coordinates": [ 26.033991081171287, 40.865080987976917 ] } },
{ "type": "Feature", "properties": { "objectid": 12662.0, "point_x": 669660.4, "point_y": 4532714.0, "lat": 40.92795, "lon": 26.015076, "h": 168.0, "Name": "Νίψα,η", "Code": 301020401 }, "geometry": { "type": "Point", "coordinates": [ 26.016914399703676, 40.930494650217035 ] } },
{ "type": "Feature", "properties": { "objectid": 12656.0, "point_x": 682762.9, "point_y": 4528979.5, "lat": 40.89151, "lon": 26.169493, "h": 40.0, "Name": "Φέραι,αι", "Code": 301030101 }, "geometry": { "type": "Point", "coordinates": [ 26.171335535500472, 40.894052300867607 ] } },
{ "type": "Feature", "properties": { "objectid": 12828.0, "point_x": 686108.2, "point_y": 4533282.0, "lat": 40.929485, "lon": 26.210466, "h": 27.0, "Name": "Αρδάνιον,το", "Code": 301030201 }, "geometry": { "type": "Point", "coordinates": [ 26.212311106619278, 40.932026997818241 ] } },
{ "type": "Feature", "properties": { "objectid": 12829.0, "point_x": 678247.5, "point_y": 4525839.5, "lat": 40.86424, "lon": 26.115028, "h": 32.0, "Name": "Δορίσκος,ο", "Code": 301030301 }, "geometry": { "type": "Point", "coordinates": [ 26.116868714657151, 40.866781348578463 ] } },
{ "type": "Feature", "properties": { "objectid": 12830.0, "point_x": 677129.6, "point_y": 4524215.0, "lat": 40.849854, "lon": 26.10131, "h": 39.0, "Name": "Μοναστηράκιον,το", "Code": 301030302 }, "geometry": { "type": "Point", "coordinates": [ 26.10314914905371, 40.852398457828066 ] } },
{ "type": "Feature", "properties": { "objectid": 12670.0, "point_x": 690618.8, "point_y": 4536202.0, "lat": 40.954735, "lon": 26.264898, "h": 60.0, "Name": "Πέπλος,ο", "Code": 301030501 }, "geometry": { "type": "Point", "coordinates": [ 26.266746022083261, 40.95727262608456 ] } },
{ "type": "Feature", "properties": { "objectid": 12834.0, "point_x": 694038.7, "point_y": 4535811.0, "lat": 40.950405, "lon": 26.30538, "h": 42.0, "Name": "Κήποι,οι", "Code": 301030504 }, "geometry": { "type": "Point", "coordinates": [ 26.307227658112886, 40.952943577725698 ] } },
{ "type": "Feature", "properties": { "objectid": 12822.0, "point_x": 677113.2, "point_y": 4535373.5, "lat": 40.950314, "lon": 26.104298, "h": 162.0, "Name": "Μελία,η", "Code": 301030603 }, "geometry": { "type": "Point", "coordinates": [ 26.106140039381522, 40.952857399781401 ] } },
{ "type": "Feature", "properties": { "objectid": 12760.0, "point_x": 708857.3, "point_y": 4580361.5, "lat": 41.347687, "lon": 26.496458, "h": 36.0, "Name": "Διδυμότειχον,το", "Code": 302010101 }, "geometry": { "type": "Point", "coordinates": [ 26.498323548566947, 41.350218697813006 ] } },
{ "type": "Feature", "properties": { "objectid": 12853.0, "point_x": 705704.8, "point_y": 4578140.5, "lat": 41.32851, "lon": 26.458057, "h": 170.0, "Name": "Διδυμότειχον,το", "Code": 302010101 }, "geometry": { "type": "Point", "coordinates": [ 26.459921843978961, 41.331042190116989 ] } },
{ "type": "Feature", "properties": { "objectid": 12854.0, "point_x": 707687.06, "point_y": 4577089.5, "lat": 41.318542, "lon": 26.481365, "h": 37.0, "Name": "Νέοι Ψαθάδες,οι", "Code": 302010102 }, "geometry": { "type": "Point", "coordinates": [ 26.48322878318714, 41.321077084735059 ] } },
{ "type": "Feature", "properties": { "objectid": 12758.0, "point_x": 697470.0, "point_y": 4579854.0, "lat": 41.34599, "lon": 26.360296, "h": 123.0, "Name": "Ασβεστάδες,οι", "Code": 302010201 }, "geometry": { "type": "Point", "coordinates": [ 26.362156611791274, 41.348523360422639 ] } },
{ "type": "Feature", "properties": { "objectid": 12769.0, "point_x": 714016.3, "point_y": 4586155.5, "lat": 41.398468, "lon": 26.56011, "h": 51.0, "Name": "Ασημένιον,το", "Code": 302010301 }, "geometry": { "type": "Point", "coordinates": [ 26.561978358581598, 41.40099852053244 ] } },
{ "type": "Feature", "properties": { "objectid": 12765.0, "point_x": 705708.56, "point_y": 4582893.5, "lat": 41.37128, "lon": 26.459713, "h": 40.0, "Name": "Ελληνοχώριον,το", "Code": 302010401 }, "geometry": { "type": "Point", "coordinates": [ 26.461578024672679, 41.373815070853759 ] } },
{ "type": "Feature", "properties": { "objectid": 12861.0, "point_x": 710047.4, "point_y": 4587203.0, "lat": 41.408943, "lon": 26.51304, "h": 56.0, "Name": "Θυρέα,η", "Code": 302010402 }, "geometry": { "type": "Point", "coordinates": [ 26.514907395317387, 41.411473498443733 ] } },
{ "type": "Feature", "properties": { "objectid": 12770.0, "point_x": 702586.44, "point_y": 4586352.0, "lat": 41.4032, "lon": 26.42357, "h": 40.0, "Name": "Καρωτή,η", "Code": 302010601 }, "geometry": { "type": "Point", "coordinates": [ 26.425434515904715, 41.405732832970315 ] } },
{ "type": "Feature", "properties": { "objectid": 12762.0, "point_x": 703753.7, "point_y": 4580748.0, "lat": 41.352467, "lon": 26.435638, "h": 59.0, "Name": "Κουφόβουνον,το", "Code": 302010701 }, "geometry": { "type": "Point", "coordinates": [ 26.437501771337107, 41.355001371930825 ] } },
{ "type": "Feature", "properties": { "objectid": 12764.0, "point_x": 698986.3, "point_y": 4582990.5, "lat": 41.373844, "lon": 26.379433, "h": 51.0, "Name": "Κυανή,η", "Code": 302010801 }, "geometry": { "type": "Point", "coordinates": [ 26.381295066707274, 41.376378755203596 ] } },
{ "type": "Feature", "properties": { "objectid": 12771.0, "point_x": 700752.4, "point_y": 4586732.5, "lat": 41.40708, "lon": 26.401773, "h": 50.0, "Name": "Μάνη,η", "Code": 302010901 }, "geometry": { "type": "Point", "coordinates": [ 26.40363760028881, 41.409614445063092 ] } },
{ "type": "Feature", "properties": { "objectid": 12851.0, "point_x": 695850.56, "point_y": 4588931.0, "lat": 41.428078, "lon": 26.343887, "h": 40.0, "Name": "Ευγενικόν,το", "Code": 302010902 }, "geometry": { "type": "Point", "coordinates": [ 26.345751107028221, 41.430611676343069 ] } },
{ "type": "Feature", "properties": { "objectid": 12761.0, "point_x": 717797.94, "point_y": 4580212.5, "lat": 41.34398, "lon": 26.603168, "h": 71.0, "Name": "Πετράδες,οι", "Code": 302011001 }, "geometry": { "type": "Point", "coordinates": [ 26.605036558567647, 41.346509301087131 ] } },
{ "type": "Feature", "properties": { "objectid": 12779.0, "point_x": 698969.94, "point_y": 4592465.5, "lat": 41.45912, "lon": 26.382353, "h": 129.0, "Name": "Ποιμενικόν,το", "Code": 302011101 }, "geometry": { "type": "Point", "coordinates": [ 26.384218066758258, 41.461654920893494 ] } },
{ "type": "Feature", "properties": { "objectid": 12759.0, "point_x": 715408.2, "point_y": 4579977.5, "lat": 41.342503, "lon": 26.574549, "h": 22.0, "Name": "Πραγγίον,το", "Code": 302011201 }, "geometry": { "type": "Point", "coordinates": [ 26.57641696351719, 41.345035797008222 ] } },
{ "type": "Feature", "properties": { "objectid": 12766.0, "point_x": 718189.25, "point_y": 4584149.0, "lat": 41.379295, "lon": 26.609255, "h": 53.0, "Name": "Πύθιον,το", "Code": 302011301 }, "geometry": { "type": "Point", "coordinates": [ 26.611125260532841, 41.381824851268419 ] } },
{ "type": "Feature", "properties": { "objectid": 12857.0, "point_x": 714033.5, "point_y": 4587963.5, "lat": 41.414734, "lon": 26.560955, "h": 45.0, "Name": "Σοφικόν,το", "Code": 302011501 }, "geometry": { "type": "Point", "coordinates": [ 26.562823985094475, 41.417266304554694 ] } },
{ "type": "Feature", "properties": { "objectid": 12773.0, "point_x": 685875.4, "point_y": 4587444.5, "lat": 41.417065, "lon": 26.22414, "h": 128.0, "Name": "Μεταξάδες,οι", "Code": 302020101 }, "geometry": { "type": "Point", "coordinates": [ 26.225998206186116, 41.419602665695145 ] } },
{ "type": "Feature", "properties": { "objectid": 12877.0, "point_x": 685455.75, "point_y": 4589095.0, "lat": 41.43202, "lon": 26.219627, "h": 50.0, "Name": "Αβδέλλα,η", "Code": 302020102 }, "geometry": { "type": "Point", "coordinates": [ 26.221487319232409, 41.434554832768143 ] } },
{ "type": "Feature", "properties": { "objectid": 12847.0, "point_x": 690575.44, "point_y": 4585666.0, "lat": 41.39996, "lon": 26.279778, "h": 144.0, "Name": "Γιατράδες,οι", "Code": 302020302 }, "geometry": { "type": "Point", "coordinates": [ 26.281636969648719, 41.402493532489061 ] } },
{ "type": "Feature", "properties": { "objectid": 12768.0, "point_x": 695108.1, "point_y": 4585416.0, "lat": 41.39662, "lon": 26.333876, "h": 70.0, "Name": "Βρυσικά,τα", "Code": 302020401 }, "geometry": { "type": "Point", "coordinates": [ 26.335738253530593, 41.399156995261166 ] } },
{ "type": "Feature", "properties": { "objectid": 12781.0, "point_x": 690484.0, "point_y": 4594726.0, "lat": 41.481525, "lon": 26.28154, "h": 116.0, "Name": "Δόξα,η", "Code": 302020501 }, "geometry": { "type": "Point", "coordinates": [ 26.283402249172816, 41.48405947848434 ] } },
{ "type": "Feature", "properties": { "objectid": 12850.0, "point_x": 693479.5, "point_y": 4595768.5, "lat": 41.490192, "lon": 26.317726, "h": 163.0, "Name": "Χιονάδες,αι", "Code": 302020603 }, "geometry": { "type": "Point", "coordinates": [ 26.31958916469797, 41.492725625026281 ] } },
{ "type": "Feature", "properties": { "objectid": 12777.0, "point_x": 688837.9, "point_y": 4591082.0, "lat": 41.449116, "lon": 26.260698, "h": 80.0, "Name": "Λάδη,η", "Code": 302020701 }, "geometry": { "type": "Point", "coordinates": [ 26.262558484865465, 41.451651416631762 ] } },
{ "type": "Feature", "properties": { "objectid": 12772.0, "point_x": 687945.56, "point_y": 4586884.0, "lat": 41.41154, "lon": 26.248718, "h": 124.0, "Name": "Παλιούριον,το", "Code": 302020801 }, "geometry": { "type": "Point", "coordinates": [ 26.250578035999286, 41.414077262471238 ] } },
{ "type": "Feature", "properties": { "objectid": 12785.0, "point_x": 711134.56, "point_y": 4597562.0, "lat": 41.501877, "lon": 26.529657, "h": 51.0, "Name": "Ορεστιάς,η", "Code": 303010101 }, "geometry": { "type": "Point", "coordinates": [ 26.531527922476936, 41.504407810119027 ] } },
{ "type": "Feature", "properties": { "objectid": 12863.0, "point_x": 705629.0, "point_y": 4597170.0, "lat": 41.49978, "lon": 26.46362, "h": 45.0, "Name": "Λεπτή,η", "Code": 303010102 }, "geometry": { "type": "Point", "coordinates": [ 26.465487649011369, 41.502312203482731 ] } },
{ "type": "Feature", "properties": { "objectid": 12858.0, "point_x": 708783.2, "point_y": 4596459.5, "lat": 41.49257, "lon": 26.50113, "h": 38.0, "Name": "Νέος Πύργος,ο", "Code": 303010103 }, "geometry": { "type": "Point", "coordinates": [ 26.502998238414861, 41.495101636149919 ] } },
{ "type": "Feature", "properties": { "objectid": 12860.0, "point_x": 710514.44, "point_y": 4601228.5, "lat": 41.535034, "lon": 26.523516, "h": 41.0, "Name": "Σάκκος,ο", "Code": 303010105 }, "geometry": { "type": "Point", "coordinates": [ 26.525387809171402, 41.537563530898041 ] } },
{ "type": "Feature", "properties": { "objectid": 12788.0, "point_x": 696348.6, "point_y": 4600832.5, "lat": 41.53507, "lon": 26.353718, "h": 95.0, "Name": "Βάλτος,ο", "Code": 303010301 }, "geometry": { "type": "Point", "coordinates": [ 26.355584487908015, 41.537600557013974 ] } },
{ "type": "Feature", "properties": { "objectid": 12774.0, "point_x": 713746.0, "point_y": 4589681.0, "lat": 41.430264, "lon": 26.558125, "h": 40.0, "Name": "Θούριον,το", "Code": 303010401 }, "geometry": { "type": "Point", "coordinates": [ 26.559994223519812, 41.432796143734159 ] } },
{ "type": "Feature", "properties": { "objectid": 12784.0, "point_x": 690344.25, "point_y": 4597524.0, "lat": 41.506744, "lon": 26.28075, "h": 160.0, "Name": "Μεγάλη Δοξιπάρα,η", "Code": 303010501 }, "geometry": { "type": "Point", "coordinates": [ 26.282614425223777, 41.509277846965773 ] } },
{ "type": "Feature", "properties": { "objectid": 12778.0, "point_x": 713067.7, "point_y": 4591640.5, "lat": 41.44808, "lon": 26.550705, "h": 43.0, "Name": "Νέον Χειμώνιον,το", "Code": 303010601 }, "geometry": { "type": "Point", "coordinates": [ 26.552575083341999, 41.450608324961884 ] } },
{ "type": "Feature", "properties": { "objectid": 12786.0, "point_x": 705091.5, "point_y": 4598141.5, "lat": 41.50866, "lon": 26.457516, "h": 40.0, "Name": "Νεοχώριον,το", "Code": 303010701 }, "geometry": { "type": "Point", "coordinates": [ 26.459384336266798, 41.511191279595096 ] } },
{ "type": "Feature", "properties": { "objectid": 12794.0, "point_x": 711867.06, "point_y": 4606589.0, "lat": 41.582912, "lon": 26.541605, "h": 65.0, "Name": "Νέα Βύσσα,η", "Code": 303020101 }, "geometry": { "type": "Point", "coordinates": [ 26.543479349017581, 41.58544301298663 ] } },
{ "type": "Feature", "properties": { "objectid": 12789.0, "point_x": 709532.8, "point_y": 4604144.0, "lat": 41.561523, "lon": 26.512775, "h": 39.0, "Name": "Καβύλη,η", "Code": 303020201 }, "geometry": { "type": "Point", "coordinates": [ 26.514648111107213, 41.564053588507974 ] } },
{ "type": "Feature", "properties": { "objectid": 12801.0, "point_x": 706089.9, "point_y": 4613003.5, "lat": 41.642143, "lon": 26.474571, "h": 60.0, "Name": "Καστανέαι,αι", "Code": 303020301 }, "geometry": { "type": "Point", "coordinates": [ 26.476444037213565, 41.644674676721955 ] } },
{ "type": "Feature", "properties": { "objectid": 12796.0, "point_x": 701897.94, "point_y": 4610446.5, "lat": 41.62021, "lon": 26.423418, "h": 76.0, "Name": "Ρίζια,τα", "Code": 303020401 }, "geometry": { "type": "Point", "coordinates": [ 26.425289525367742, 41.622740043740933 ] } },
{ "type": "Feature", "properties": { "objectid": 12805.0, "point_x": 690811.56, "point_y": 4619352.0, "lat": 41.703083, "lon": 26.293295, "h": 60.0, "Name": "Δίκαια,τα", "Code": 303040101 }, "geometry": { "type": "Point", "coordinates": [ 26.29516435365074, 41.705615836417593 ] } },
{ "type": "Feature", "properties": { "objectid": 12869.0, "point_x": 695889.94, "point_y": 4615310.5, "lat": 41.665478, "lon": 26.352955, "h": 73.0, "Name": "Κριός,ο", "Code": 303040103 }, "geometry": { "type": "Point", "coordinates": [ 26.354825298163263, 41.668011221353915 ] } },
{ "type": "Feature", "properties": { "objectid": 12865.0, "point_x": 700505.06, "point_y": 4612929.0, "lat": 41.6429, "lon": 26.407545, "h": 53.0, "Name": "Καναδάς,ο", "Code": 303040202 }, "geometry": { "type": "Point", "coordinates": [ 26.40941653341703, 41.645430182157519 ] } },
{ "type": "Feature", "properties": { "objectid": 12795.0, "point_x": 692736.44, "point_y": 4609721.0, "lat": 41.61594, "lon": 26.313305, "h": 60.0, "Name": "Ελαία,η", "Code": 303040301 }, "geometry": { "type": "Point", "coordinates": [ 26.315173044970859, 41.618474169207708 ] } },
{ "type": "Feature", "properties": { "objectid": 12793.0, "point_x": 685597.6, "point_y": 4606729.0, "lat": 41.590702, "lon": 26.22676, "h": 64.0, "Name": "Κόμαρα,τα", "Code": 303040501 }, "geometry": { "type": "Point", "coordinates": [ 26.228624012591393, 41.593237635446258 ] } },
{ "type": "Feature", "properties": { "objectid": 12802.0, "point_x": 705476.5, "point_y": 4615498.0, "lat": 41.66475, "lon": 26.46807, "h": 80.0, "Name": "Μαράσια,τα", "Code": 303040601 }, "geometry": { "type": "Point", "coordinates": [ 26.469942976245335, 41.667280092082898 ] } },
{ "type": "Feature", "properties": { "objectid": 12806.0, "point_x": 684036.5, "point_y": 4620825.0, "lat": 41.717937, "lon": 26.212383, "h": 66.0, "Name": "Ορμένιον,το", "Code": 303040801 }, "geometry": { "type": "Point", "coordinates": [ 26.214249960603095, 41.720471093464525 ] } },
{ "type": "Feature", "properties": { "objectid": 12799.0, "point_x": 681554.25, "point_y": 4612491.5, "lat": 41.6435, "lon": 26.180029, "h": 271.0, "Name": "Πεντάλοφος,ο", "Code": 303040901 }, "geometry": { "type": "Point", "coordinates": [ 26.18189303080764, 41.646036706672973 ] } },
{ "type": "Feature", "properties": { "objectid": 12797.0, "point_x": 694326.75, "point_y": 4610902.0, "lat": 41.626186, "lon": 26.332762, "h": 58.0, "Name": "Πλάτη,η", "Code": 303041101 }, "geometry": { "type": "Point", "coordinates": [ 26.33463004888366, 41.628720135156058 ] } },
{ "type": "Feature", "properties": { "objectid": 12804.0, "point_x": 686285.94, "point_y": 4618777.0, "lat": 41.698982, "lon": 26.238764, "h": 99.0, "Name": "Πτελέα,η", "Code": 303041201 }, "geometry": { "type": "Point", "coordinates": [ 26.240631758026673, 41.701515948644506 ] } },
{ "type": "Feature", "properties": { "objectid": 12800.0, "point_x": 692169.3, "point_y": 4612890.0, "lat": 41.6446, "lon": 26.307522, "h": 74.0, "Name": "Σπήλαιον,το", "Code": 303041301 }, "geometry": { "type": "Point", "coordinates": [ 26.309390316452728, 41.647134548615796 ] } },
{ "type": "Feature", "properties": { "objectid": 12650.0, "point_x": 629063.6, "point_y": 4481208.5, "lat": 40.47154, "lon": 25.522493, "h": 237.0, "Name": "Σαμοθράκη,η", "Code": 304000001 }, "geometry": { "type": "Point", "coordinates": [ 25.52430455995356, 40.474094624568444 ] } },
{ "type": "Feature", "properties": { "objectid": 12807.0, "point_x": 628161.25, "point_y": 4479894.0, "lat": 40.45984, "lon": 25.511587, "h": 121.0, "Name": "Αλώνια,τα", "Code": 304000002 }, "geometry": { "type": "Point", "coordinates": [ 25.513397013979343, 40.462392734708999 ] } },
{ "type": "Feature", "properties": { "objectid": 12815.0, "point_x": 630027.2, "point_y": 4475761.0, "lat": 40.42233, "lon": 25.532742, "h": 82.0, "Name": "Δάφνες,οι", "Code": 304000005 }, "geometry": { "type": "Point", "coordinates": [ 25.53455115641836, 40.424883800451873 ] } },
{ "type": "Feature", "properties": { "objectid": 12811.0, "point_x": 635680.7, "point_y": 4483989.5, "lat": 40.495525, "lon": 25.601118, "h": 61.0, "Name": "Θέρμα,τα", "Code": 304000006 }, "geometry": { "type": "Point", "coordinates": [ 25.602932318320924, 40.498078963465467 ] } },
{ "type": "Feature", "properties": { "objectid": 12817.0, "point_x": 624771.0, "point_y": 4481311.5, "lat": 40.473118, "lon": 25.471891, "h": 1.0, "Name": "Καμαριώτισσα,η", "Code": 304000007 }, "geometry": { "type": "Point", "coordinates": [ 25.473701431289211, 40.475675726628452 ] } },
{ "type": "Feature", "properties": { "objectid": 12820.0, "point_x": 632827.3, "point_y": 4484457.5, "lat": 40.500206, "lon": 25.567556, "h": 62.0, "Name": "Κάτω Καρυώται,οι", "Code": 304000009 }, "geometry": { "type": "Point", "coordinates": [ 25.569369570131318, 40.502759490929357 ] } },
{ "type": "Feature", "properties": { "objectid": 12816.0, "point_x": 629604.9, "point_y": 4476045.0, "lat": 40.42495, "lon": 25.527822, "h": 77.0, "Name": "Λάκκωμα,το", "Code": 304000010 }, "geometry": { "type": "Point", "coordinates": [ 25.529632123372185, 40.427506954358719 ] } },
{ "type": "Feature", "properties": { "objectid": 12812.0, "point_x": 628667.75, "point_y": 4476699.5, "lat": 40.430992, "lon": 25.51691, "h": 40.0, "Name": "Μακρυλιές,οι", "Code": 304000011 }, "geometry": { "type": "Point", "coordinates": [ 25.518721151067481, 40.433548485899166 ] } },
{ "type": "Feature", "properties": { "objectid": 12821.0, "point_x": 629793.75, "point_y": 4484450.5, "lat": 40.500618, "lon": 25.531767, "h": 32.0, "Name": "Παλαιόπολις,η", "Code": 304000013 }, "geometry": { "type": "Point", "coordinates": [ 25.533579114910133, 40.503173573442673 ] } },
{ "type": "Feature", "properties": { "objectid": 12818.0, "point_x": 625928.6, "point_y": 4482155.0, "lat": 40.48054, "lon": 25.48571, "h": 36.0, "Name": "Ποταμιά,η", "Code": 304000014 }, "geometry": { "type": "Point", "coordinates": [ 25.487521040193094, 40.483098158986714 ] } },
{ "type": "Feature", "properties": { "objectid": 12737.0, "point_x": 692861.6, "point_y": 4562719.0, "lat": 41.192883, "lon": 26.299835, "h": 43.0, "Name": "Σουφλίον,το", "Code": 305010101 }, "geometry": { "type": "Point", "coordinates": [ 26.301689894786282, 41.195419412448373 ] } },
{ "type": "Feature", "properties": { "objectid": 12726.0, "point_x": 686588.4, "point_y": 4555159.5, "lat": 41.126305, "lon": 26.22278, "h": 96.0, "Name": "Δαδιά,η", "Code": 305010201 }, "geometry": { "type": "Point", "coordinates": [ 26.224631585461307, 41.128844520403355 ] } },
{ "type": "Feature", "properties": { "objectid": 12733.0, "point_x": 692495.75, "point_y": 4558341.0, "lat": 41.153564, "lon": 26.2941, "h": 26.0, "Name": "Κορνοφωλεά,η", "Code": 305010301 }, "geometry": { "type": "Point", "coordinates": [ 26.295953216794032, 41.156101338452494 ] } },
{ "type": "Feature", "properties": { "objectid": 12711.0, "point_x": 692984.6, "point_y": 4550292.5, "lat": 41.081005, "lon": 26.297392, "h": 13.0, "Name": "Λαγυνά,τα", "Code": 305010401 }, "geometry": { "type": "Point", "coordinates": [ 26.29924428399401, 41.083543665691515 ] } },
{ "type": "Feature", "properties": { "objectid": 12725.0, "point_x": 691963.9, "point_y": 4554170.5, "lat": 41.11615, "lon": 26.28646, "h": 17.0, "Name": "Λυκόφως,το", "Code": 305010501 }, "geometry": { "type": "Point", "coordinates": [ 26.28831359399981, 41.11868965613251 ] } },
{ "type": "Feature", "properties": { "objectid": 12750.0, "point_x": 699503.44, "point_y": 4571235.5, "lat": 41.267925, "lon": 26.381754, "h": 36.0, "Name": "Λάβαρα,τα", "Code": 305020101 }, "geometry": { "type": "Point", "coordinates": [ 26.383614141415375, 41.270458653689253 ] } },
{ "type": "Feature", "properties": { "objectid": 12753.0, "point_x": 704225.6, "point_y": 4574424.0, "lat": 41.295437, "lon": 26.43915, "h": 31.0, "Name": "Αμόριον,το", "Code": 305020201 }, "geometry": { "type": "Point", "coordinates": [ 26.44101217324511, 41.297970173359275 ] } },
{ "type": "Feature", "properties": { "objectid": 12749.0, "point_x": 695076.1, "point_y": 4571161.0, "lat": 41.268333, "lon": 26.328918, "h": 23.0, "Name": "Μάνδρα,η", "Code": 305020401 }, "geometry": { "type": "Point", "coordinates": [ 26.330775952286796, 41.270869571770355 ] } },
{ "type": "Feature", "properties": { "objectid": 12692.0, "point_x": 692722.4, "point_y": 4544132.5, "lat": 41.02562, "lon": 26.292347, "h": 24.0, "Name": "Τυχερόν,το", "Code": 305030101 }, "geometry": { "type": "Point", "coordinates": [ 26.294196156900369, 41.028158971550234 ] } },
{ "type": "Feature", "properties": { "objectid": 12690.0, "point_x": 684546.06, "point_y": 4543399.5, "lat": 41.020912, "lon": 26.194944, "h": 146.0, "Name": "Λευκίμμη,η", "Code": 305030201 }, "geometry": { "type": "Point", "coordinates": [ 26.196790374309835, 41.023454141563967 ] } },
{ "type": "Feature", "properties": { "objectid": 12704.0, "point_x": 690559.7, "point_y": 4548786.0, "lat": 41.068016, "lon": 26.26808, "h": 20.0, "Name": "Λύρα,η", "Code": 305030301 }, "geometry": { "type": "Point", "coordinates": [ 26.269930226780684, 41.070556298357005 ] } },
{ "type": "Feature", "properties": { "objectid": 12691.0, "point_x": 689258.94, "point_y": 4543776.0, "lat": 41.02322, "lon": 26.251072, "h": 23.0, "Name": "Προβατών,ο", "Code": 305030401 }, "geometry": { "type": "Point", "coordinates": [ 26.252920351053639, 41.02576065520573 ] } },
{ "type": "Feature", "properties": { "objectid": 12835.0, "point_x": 690752.44, "point_y": 4546919.0, "lat": 41.051163, "lon": 26.269794, "h": 34.0, "Name": "Φυλακτόν,το", "Code": 305030501 }, "geometry": { "type": "Point", "coordinates": [ 26.271644253712701, 41.053702358064363 ] } },
{ "type": "Feature", "properties": { "objectid": 6718.0, "point_x": 560050.75, "point_y": 4514322.5, "lat": 40.77769, "lon": 24.711637, "h": 1.0, "Name": "Θάσος,η", "Code": 401000101 }, "geometry": { "type": "Point", "coordinates": [ 24.713432867876879, 40.780255631992702 ] } },
{ "type": "Feature", "properties": { "objectid": 7400.0, "point_x": 557774.1, "point_y": 4514088.0, "lat": 40.775738, "lon": 24.684639, "h": 2.0, "Name": "Γλυφάδα,η", "Code": 401000102 }, "geometry": { "type": "Point", "coordinates": [ 24.686433240472326, 40.778304793263807 ] } },
{ "type": "Feature", "properties": { "objectid": 7401.0, "point_x": 561029.4, "point_y": 4513283.0, "lat": 40.768253, "lon": 24.723133, "h": 22.0, "Name": "Μακρυάμμος,η", "Code": 401000103 }, "geometry": { "type": "Point", "coordinates": [ 24.724927882264026, 40.770819877503861 ] } },
{ "type": "Feature", "properties": { "objectid": 6592.0, "point_x": 558383.3, "point_y": 4501000.0, "lat": 40.6578, "lon": 24.690638, "h": 250.0, "Name": "Θεολόγος,ο", "Code": 401000201 }, "geometry": { "type": "Point", "coordinates": [ 24.6924292590836, 40.660367158898723 ] } },
{ "type": "Feature", "properties": { "objectid": 7413.0, "point_x": 562585.75, "point_y": 4495032.0, "lat": 40.60373, "lon": 24.739754, "h": 24.0, "Name": "Αλυκή,η", "Code": 401000202 }, "geometry": { "type": "Point", "coordinates": [ 24.741543876604958, 40.606297593410851 ] } },
{ "type": "Feature", "properties": { "objectid": 7414.0, "point_x": 555186.25, "point_y": 4493136.0, "lat": 40.58718, "lon": 24.652132, "h": 72.0, "Name": "Αστρίς,η", "Code": 401000203 }, "geometry": { "type": "Point", "coordinates": [ 24.653919504562559, 40.58974821678062 ] } },
{ "type": "Feature", "properties": { "objectid": 7415.0, "point_x": 561074.3, "point_y": 4495996.5, "lat": 40.612534, "lon": 24.721983, "h": 122.0, "Name": "Θυμωνιά,η", "Code": 401000204 }, "geometry": { "type": "Point", "coordinates": [ 24.723773479793522, 40.61509955104416 ] } },
{ "type": "Feature", "properties": { "objectid": 7418.0, "point_x": 559167.4, "point_y": 4493994.0, "lat": 40.59463, "lon": 24.699253, "h": 71.0, "Name": "Μονή Αρχαγγέλου,η", "Code": 401000208 }, "geometry": { "type": "Point", "coordinates": [ 24.701043119660117, 40.597198775394787 ] } },
{ "type": "Feature", "properties": { "objectid": 7420.0, "point_x": 551114.44, "point_y": 4495469.0, "lat": 40.608456, "lon": 24.604208, "h": 0.0, "Name": "Ποτός,ο", "Code": 401000211 }, "geometry": { "type": "Point", "coordinates": [ 24.605994467790829, 40.611023876644111 ] } },
{ "type": "Feature", "properties": { "objectid": 7409.0, "point_x": 545010.25, "point_y": 4506219.5, "lat": 40.705658, "lon": 24.532825, "h": 1.0, "Name": "Σκάλα Καλλιράχης,η", "Code": 401000302 }, "geometry": { "type": "Point", "coordinates": [ 24.534611872850558, 40.708226999974642 ] } },
{ "type": "Feature", "properties": { "objectid": 6606.0, "point_x": 555267.3, "point_y": 4502001.5, "lat": 40.667034, "lon": 24.653868, "h": 474.0, "Name": "Κάστρον,το", "Code": 401000401 }, "geometry": { "type": "Point", "coordinates": [ 24.655658005707192, 40.669602656867106 ] } },
{ "type": "Feature", "properties": { "objectid": 7412.0, "point_x": 548680.3, "point_y": 4497289.5, "lat": 40.625004, "lon": 24.575577, "h": 15.0, "Name": "Λιμενάρια,τα", "Code": 401000402 }, "geometry": { "type": "Point", "coordinates": [ 24.577363020027814, 40.627572654216912 ] } },
{ "type": "Feature", "properties": { "objectid": 6629.0, "point_x": 552284.4, "point_y": 4504348.5, "lat": 40.688374, "lon": 24.618774, "h": 319.0, "Name": "Μαριαί,αι", "Code": 401000501 }, "geometry": { "type": "Point", "coordinates": [ 24.620563783351461, 40.690942311494602 ] } },
{ "type": "Feature", "properties": { "objectid": 7410.0, "point_x": 543523.0, "point_y": 4498999.0, "lat": 40.640694, "lon": 24.514719, "h": 4.0, "Name": "Σκάλα Μαριών,η", "Code": 401000502 }, "geometry": { "type": "Point", "coordinates": [ 24.516504276584037, 40.643263427975924 ] } },
{ "type": "Feature", "properties": { "objectid": 6670.0, "point_x": 561282.1, "point_y": 4508894.5, "lat": 40.728703, "lon": 24.725698, "h": 244.0, "Name": "Παναγία,η", "Code": 401000601 }, "geometry": { "type": "Point", "coordinates": [ 24.727492054922077, 40.731268370699183 ] } },
{ "type": "Feature", "properties": { "objectid": 7399.0, "point_x": 563997.5, "point_y": 4508863.5, "lat": 40.728218, "lon": 24.757847, "h": 16.0, "Name": "Χρυσή Αμμουδιά,η", "Code": 401000602 }, "geometry": { "type": "Point", "coordinates": [ 24.759642066579961, 40.730784995609966 ] } },
{ "type": "Feature", "properties": { "objectid": 6651.0, "point_x": 561331.3, "point_y": 4507240.0, "lat": 40.713795, "lon": 24.726118, "h": 129.0, "Name": "Ποταμιά,η", "Code": 401000701 }, "geometry": { "type": "Point", "coordinates": [ 24.727912191378458, 40.716362268062319 ] } },
{ "type": "Feature", "properties": { "objectid": 7411.0, "point_x": 561879.44, "point_y": 4505634.0, "lat": 40.699287, "lon": 24.732449, "h": 155.0, "Name": "Λεύκη,η", "Code": 401000702 }, "geometry": { "type": "Point", "coordinates": [ 24.73424238445558, 40.701855061552415 ] } },
{ "type": "Feature", "properties": { "objectid": 6659.0, "point_x": 552519.25, "point_y": 4508055.5, "lat": 40.721752, "lon": 24.621864, "h": 287.0, "Name": "Μεγάλος Πρίνος,ο", "Code": 401000801 }, "geometry": { "type": "Point", "coordinates": [ 24.623654928460088, 40.724320015071029 ] } },
{ "type": "Feature", "properties": { "objectid": 7406.0, "point_x": 548559.94, "point_y": 4511756.0, "lat": 40.75533, "lon": 24.575274, "h": 0.0, "Name": "Όρμος Πρίνου,ο", "Code": 401000804 }, "geometry": { "type": "Point", "coordinates": [ 24.577062668038234, 40.757897712543155 ] } },
{ "type": "Feature", "properties": { "objectid": 7407.0, "point_x": 548545.8, "point_y": 4509922.5, "lat": 40.738815, "lon": 24.574963, "h": 27.0, "Name": "Πρίνος,ο", "Code": 401000805 }, "geometry": { "type": "Point", "coordinates": [ 24.57675286530019, 40.7413819237401 ] } },
{ "type": "Feature", "properties": { "objectid": 6693.0, "point_x": 553541.56, "point_y": 4511664.5, "lat": 40.754196, "lon": 24.634277, "h": 130.0, "Name": "Ραχώνιον,το", "Code": 401000901 }, "geometry": { "type": "Point", "coordinates": [ 24.636069605824272, 40.756764572532312 ] } },
{ "type": "Feature", "properties": { "objectid": 7402.0, "point_x": 553640.8, "point_y": 4512318.0, "lat": 40.760075, "lon": 24.63551, "h": 103.0, "Name": "Ραχώνιον,το", "Code": 401000901 }, "geometry": { "type": "Point", "coordinates": [ 24.637301202092047, 40.762641140995747 ] } },
{ "type": "Feature", "properties": { "objectid": 7403.0, "point_x": 551683.4, "point_y": 4514438.5, "lat": 40.779305, "lon": 24.612495, "h": 0.0, "Name": "Σκάλα Ραχωνίου,η", "Code": 401000902 }, "geometry": { "type": "Point", "coordinates": [ 24.614286781954636, 40.781869995435187 ] } },
{ "type": "Feature", "properties": { "objectid": 6663.0, "point_x": 546160.8, "point_y": 4508539.0, "lat": 40.726486, "lon": 24.546616, "h": 0.0, "Name": "Σκάλα Σωτήρος,η", "Code": 401001001 }, "geometry": { "type": "Point", "coordinates": [ 24.548403391220152, 40.729054938696699 ] } },
{ "type": "Feature", "properties": { "objectid": 7408.0, "point_x": 548268.3, "point_y": 4507237.5, "lat": 40.71464, "lon": 24.57147, "h": 264.0, "Name": "Σωτήρ,ο", "Code": 401001002 }, "geometry": { "type": "Point", "coordinates": [ 24.573258388385554, 40.717211107133764 ] } },
{ "type": "Feature", "properties": { "objectid": 6905.0, "point_x": 534518.94, "point_y": 4531534.0, "lat": 40.934204, "lon": 24.410036, "h": 1.0, "Name": "Καβάλα,η", "Code": 501010101 }, "geometry": { "type": "Point", "coordinates": [ 24.411825183729029, 40.93677251346795 ] } },
{ "type": "Feature", "properties": { "objectid": 7313.0, "point_x": 531576.75, "point_y": 4531888.0, "lat": 40.93751, "lon": 24.375105, "h": 195.0, "Name": "Άγιος Σύλλας,ο", "Code": 501010102 }, "geometry": { "type": "Point", "coordinates": [ 24.376893584372201, 40.940081733522334 ] } },
{ "type": "Feature", "properties": { "objectid": 7314.0, "point_x": 538002.94, "point_y": 4532978.0, "lat": 40.947056, "lon": 24.451508, "h": 21.0, "Name": "Άσπρη Άμμος,η", "Code": 501010103 }, "geometry": { "type": "Point", "coordinates": [ 24.453299396949127, 40.949623786834721 ] } },
{ "type": "Feature", "properties": { "objectid": 7315.0, "point_x": 529133.44, "point_y": 4527915.0, "lat": 40.90181, "lon": 24.345896, "h": 26.0, "Name": "Παλαιόν Τσιφλίκιον,το", "Code": 501010104 }, "geometry": { "type": "Point", "coordinates": [ 24.347681420097121, 40.904381747757206 ] } },
{ "type": "Feature", "properties": { "objectid": 7316.0, "point_x": 533873.94, "point_y": 4532909.5, "lat": 40.94662, "lon": 24.402449, "h": 179.0, "Name": "Σανατόριον,το", "Code": 501010105 }, "geometry": { "type": "Point", "coordinates": [ 24.40423860065825, 40.949189014971452 ] } },
{ "type": "Feature", "properties": { "objectid": 6929.0, "point_x": 543088.0, "point_y": 4534369.0, "lat": 40.959335, "lon": 24.512018, "h": 2.0, "Name": "Νέα Καρβάλη,η", "Code": 501010201 }, "geometry": { "type": "Point", "coordinates": [ 24.51381094007057, 40.961901599517645 ] } },
{ "type": "Feature", "properties": { "objectid": 6940.0, "point_x": 539468.3, "point_y": 4536179.5, "lat": 40.975826, "lon": 24.469122, "h": 93.0, "Name": "Χαλκερόν,το", "Code": 501010301 }, "geometry": { "type": "Point", "coordinates": [ 24.470913832113155, 40.978394720916214 ] } },
{ "type": "Feature", "properties": { "objectid": 6987.0, "point_x": 524512.25, "point_y": 4541347.0, "lat": 41.02296, "lon": 24.291561, "h": 140.0, "Name": "Κρηνίδες,αι", "Code": 501020101 }, "geometry": { "type": "Point", "coordinates": [ 24.29334924307312, 41.025530559122672 ] } },
{ "type": "Feature", "properties": { "objectid": 6928.0, "point_x": 530154.1, "point_y": 4534369.0, "lat": 40.959915, "lon": 24.358328, "h": 71.0, "Name": "Αμυγδαλεών,ο", "Code": 501020201 }, "geometry": { "type": "Point", "coordinates": [ 24.360115527171054, 40.962484074390467 ] } },
{ "type": "Feature", "properties": { "objectid": 6991.0, "point_x": 532091.0, "point_y": 4540132.0, "lat": 41.011753, "lon": 24.381641, "h": 173.0, "Name": "Ζυγός,ο", "Code": 501020301 }, "geometry": { "type": "Point", "coordinates": [ 24.383432624576979, 41.014323578368405 ] } },
{ "type": "Feature", "properties": { "objectid": 7356.0, "point_x": 531419.4, "point_y": 4537159.0, "lat": 40.984997, "lon": 24.373503, "h": 99.0, "Name": "Πρόσφυγες,οι", "Code": 501020302 }, "geometry": { "type": "Point", "coordinates": [ 24.375293235002612, 40.987566343206915 ] } },
{ "type": "Feature", "properties": { "objectid": 7032.0, "point_x": 537342.9, "point_y": 4544288.5, "lat": 41.048973, "lon": 24.44435, "h": 757.0, "Name": "Κορυφαί,αι", "Code": 501020401 }, "geometry": { "type": "Point", "coordinates": [ 24.446143182868639, 41.051540570834732 ] } },
{ "type": "Feature", "properties": { "objectid": 7012.0, "point_x": 523531.28, "point_y": 4541846.0, "lat": 41.02749, "lon": 24.279913, "h": 80.0, "Name": "Λυδία,η", "Code": 501020701 }, "geometry": { "type": "Point", "coordinates": [ 24.281700050100408, 41.030057793660482 ] } },
{ "type": "Feature", "properties": { "objectid": 6979.0, "point_x": 534779.94, "point_y": 4539345.5, "lat": 41.00456, "lon": 24.413574, "h": 368.0, "Name": "Παλαιά Καβάλα,η", "Code": 501020801 }, "geometry": { "type": "Point", "coordinates": [ 24.415366378516794, 41.007128716883095 ] } },
{ "type": "Feature", "properties": { "objectid": 6945.0, "point_x": 527465.0, "point_y": 4536823.5, "lat": 40.98212, "lon": 24.32648, "h": 67.0, "Name": "Πολύστυλον,το", "Code": 501021001 }, "geometry": { "type": "Point", "coordinates": [ 24.328268961245961, 40.984690412349707 ] } },
{ "type": "Feature", "properties": { "objectid": 7352.0, "point_x": 526897.44, "point_y": 4535251.0, "lat": 40.96797, "lon": 24.319666, "h": 47.0, "Name": "Δάτον,το", "Code": 501021002 }, "geometry": { "type": "Point", "coordinates": [ 24.321453636333743, 40.970543374846571 ] } },
{ "type": "Feature", "properties": { "objectid": 7006.0, "point_x": 528645.5, "point_y": 4541444.0, "lat": 41.0237, "lon": 24.340729, "h": 186.0, "Name": "Φίλιπποι,οι", "Code": 501021101 }, "geometry": { "type": "Point", "coordinates": [ 24.342517600866103, 41.026272024465975 ] } },
{ "type": "Feature", "properties": { "objectid": 6947.0, "point_x": 559178.9, "point_y": 4536977.5, "lat": 40.981823, "lon": 24.703465, "h": 22.0, "Name": "Χρυσούπολις,η", "Code": 502010101 }, "geometry": { "type": "Point", "coordinates": [ 24.705263969023854, 40.984387441655315 ] } },
{ "type": "Feature", "properties": { "objectid": 7038.0, "point_x": 559736.6, "point_y": 4545018.0, "lat": 41.05421, "lon": 24.710873, "h": 168.0, "Name": "Αβραμυλιά,η", "Code": 502010201 }, "geometry": { "type": "Point", "coordinates": [ 24.712674480294748, 41.056772699026709 ] } },
{ "type": "Feature", "properties": { "objectid": 7389.0, "point_x": 560522.8, "point_y": 4544986.0, "lat": 41.053864, "lon": 24.720224, "h": 118.0, "Name": "Δαμασκηνιά,η", "Code": 502010202 }, "geometry": { "type": "Point", "coordinates": [ 24.722026119280422, 41.056425756598159 ] } },
{ "type": "Feature", "properties": { "objectid": 7008.0, "point_x": 555674.06, "point_y": 4541412.5, "lat": 41.02202, "lon": 24.662205, "h": 117.0, "Name": "Γέροντας,ο", "Code": 502010301 }, "geometry": { "type": "Point", "coordinates": [ 24.664004182128938, 41.024583428670759 ] } },
{ "type": "Feature", "properties": { "objectid": 6963.0, "point_x": 554811.94, "point_y": 4537945.5, "lat": 40.990845, "lon": 24.651644, "h": 21.0, "Name": "Γραβούνα,η", "Code": 502010401 }, "geometry": { "type": "Point", "coordinates": [ 24.65344190072117, 40.993410142021737 ] } },
{ "type": "Feature", "properties": { "objectid": 6919.0, "point_x": 553456.3, "point_y": 4533098.0, "lat": 40.947273, "lon": 24.635109, "h": 19.0, "Name": "Ερατεινόν,το", "Code": 502010601 }, "geometry": { "type": "Point", "coordinates": [ 24.636905314237602, 40.949840155256304 ] } },
{ "type": "Feature", "properties": { "objectid": 6999.0, "point_x": 553586.4, "point_y": 4540723.0, "lat": 41.01595, "lon": 24.637314, "h": 154.0, "Name": "Ζαρκαδιά,η", "Code": 502010701 }, "geometry": { "type": "Point", "coordinates": [ 24.639113156262525, 41.018513651557278 ] } },
{ "type": "Feature", "properties": { "objectid": 7020.0, "point_x": 559543.9, "point_y": 4541733.0, "lat": 41.02463, "lon": 24.708261, "h": 57.0, "Name": "Νέος Ξεριάς,ο", "Code": 502010801 }, "geometry": { "type": "Point", "coordinates": [ 24.710062400981951, 41.027196911642157 ] } },
{ "type": "Feature", "properties": { "objectid": 7068.0, "point_x": 563564.2, "point_y": 4548055.5, "lat": 41.081276, "lon": 24.756731, "h": 104.0, "Name": "Παράδεισος,ο", "Code": 502010901 }, "geometry": { "type": "Point", "coordinates": [ 24.758534626123669, 41.083839656865358 ] } },
{ "type": "Feature", "properties": { "objectid": 6969.0, "point_x": 553427.44, "point_y": 4539353.0, "lat": 41.00362, "lon": 24.635305, "h": 99.0, "Name": "Πέρνη,η", "Code": 502011001 }, "geometry": { "type": "Point", "coordinates": [ 24.63710428590014, 41.006183384135547 ] } },
{ "type": "Feature", "properties": { "objectid": 6952.0, "point_x": 551596.3, "point_y": 4537315.0, "lat": 40.98538, "lon": 24.613363, "h": 66.0, "Name": "Πετροπηγή,η", "Code": 502011101 }, "geometry": { "type": "Point", "coordinates": [ 24.615160494244822, 40.987945428019579 ] } },
{ "type": "Feature", "properties": { "objectid": 6937.0, "point_x": 548666.75, "point_y": 4535449.5, "lat": 40.968754, "lon": 24.578392, "h": 18.0, "Name": "Ποντολίβαδον,το", "Code": 502011201 }, "geometry": { "type": "Point", "coordinates": [ 24.580187855872886, 40.97132184013315 ] } },
{ "type": "Feature", "properties": { "objectid": 7395.0, "point_x": 547387.5, "point_y": 4536307.0, "lat": 40.97655, "lon": 24.563255, "h": 97.0, "Name": "Νέα Κώμη,η", "Code": 502011203 }, "geometry": { "type": "Point", "coordinates": [ 24.565050227354401, 40.979119359199871 ] } },
{ "type": "Feature", "properties": { "objectid": 6901.0, "point_x": 559602.3, "point_y": 4531197.5, "lat": 40.929726, "lon": 24.707941, "h": 21.0, "Name": "Χρυσοχώριον,το", "Code": 502011301 }, "geometry": { "type": "Point", "coordinates": [ 24.70973977377427, 40.932290827774587 ] } },
{ "type": "Feature", "properties": { "objectid": 6812.0, "point_x": 559266.8, "point_y": 4523037.5, "lat": 40.856247, "lon": 24.703176, "h": 12.0, "Name": "Κεραμωτή,η", "Code": 502020101 }, "geometry": { "type": "Point", "coordinates": [ 24.704973902562614, 40.858812525326172 ] } },
{ "type": "Feature", "properties": { "objectid": 7398.0, "point_x": 559513.1, "point_y": 4525046.0, "lat": 40.874325, "lon": 24.706291, "h": 13.0, "Name": "Χαϊδευτόν,το", "Code": 502020103 }, "geometry": { "type": "Point", "coordinates": [ 24.708088684789065, 40.876888530869046 ] } },
{ "type": "Feature", "properties": { "objectid": 6878.0, "point_x": 555150.0, "point_y": 4528540.0, "lat": 40.9061, "lon": 24.654825, "h": 17.0, "Name": "Αγίασμα,το", "Code": 502020201 }, "geometry": { "type": "Point", "coordinates": [ 24.656621198033271, 40.9086678290438 ] } },
{ "type": "Feature", "properties": { "objectid": 7396.0, "point_x": 550868.94, "point_y": 4526751.5, "lat": 40.89027, "lon": 24.60385, "h": 0.0, "Name": "Παραλία Αγιάσματος,η", "Code": 502020202 }, "geometry": { "type": "Point", "coordinates": [ 24.605643790481224, 40.892837725029459 ] } },
{ "type": "Feature", "properties": { "objectid": 6875.0, "point_x": 559665.3, "point_y": 4528673.5, "lat": 40.90699, "lon": 24.708447, "h": 19.0, "Name": "Νέα Καρυά,η", "Code": 502020301 }, "geometry": { "type": "Point", "coordinates": [ 24.710244507822765, 40.90955358627145 ] } },
{ "type": "Feature", "properties": { "objectid": 6877.0, "point_x": 556509.94, "point_y": 4528135.5, "lat": 40.902367, "lon": 24.670935, "h": 17.0, "Name": "Πηγαί,αι", "Code": 502020401 }, "geometry": { "type": "Point", "coordinates": [ 24.672730999226683, 40.904931839291287 ] } },
{ "type": "Feature", "properties": { "objectid": 7063.0, "point_x": 555344.6, "point_y": 4547923.5, "lat": 41.080692, "lon": 24.65887, "h": 472.0, "Name": "Άγιος Κοσμάς,ο", "Code": 502030201 }, "geometry": { "type": "Point", "coordinates": [ 24.660672320753591, 41.08325514645901 ] } },
{ "type": "Feature", "properties": { "objectid": 7082.0, "point_x": 544487.1, "point_y": 4549494.5, "lat": 41.095505, "lon": 24.529734, "h": 701.0, "Name": "Πλαταμών,ο", "Code": 502030801 }, "geometry": { "type": "Point", "coordinates": [ 24.531531076906074, 41.098071558573082 ] } },
{ "type": "Feature", "properties": { "objectid": 6882.0, "point_x": 521209.84, "point_y": 4529280.0, "lat": 40.914352, "lon": 24.251867, "h": 71.0, "Name": "Ελευθερούπολις,η", "Code": 503010101 }, "geometry": { "type": "Point", "coordinates": [ 24.253651349779858, 40.916924723836487 ] } },
{ "type": "Feature", "properties": { "objectid": 7309.0, "point_x": 519866.84, "point_y": 4525124.5, "lat": 40.876953, "lon": 24.235786, "h": 186.0, "Name": "Εξοχή,η", "Code": 503010103 }, "geometry": { "type": "Point", "coordinates": [ 24.237568793295321, 40.8795256695444 ] } },
{ "type": "Feature", "properties": { "objectid": 7310.0, "point_x": 520360.78, "point_y": 4527182.0, "lat": 40.895477, "lon": 24.241716, "h": 183.0, "Name": "Παναγιά,η", "Code": 503010104 }, "geometry": { "type": "Point", "coordinates": [ 24.243499209917168, 40.898047927163624 ] } },
{ "type": "Feature", "properties": { "objectid": 7311.0, "point_x": 520114.84, "point_y": 4530876.5, "lat": 40.92876, "lon": 24.238916, "h": 90.0, "Name": "Χορτοκόπιον,το", "Code": 503010105 }, "geometry": { "type": "Point", "coordinates": [ 24.240700281605015, 40.931331841333652 ] } },
{ "type": "Feature", "properties": { "objectid": 6897.0, "point_x": 528677.1, "point_y": 4530704.5, "lat": 40.926956, "lon": 24.340607, "h": 113.0, "Name": "Αμισιανά,τα", "Code": 503010201 }, "geometry": { "type": "Point", "coordinates": [ 24.3423935499073, 40.929527562115879 ] } },
{ "type": "Feature", "properties": { "objectid": 6913.0, "point_x": 517654.88, "point_y": 4532368.0, "lat": 40.942257, "lon": 24.20974, "h": 100.0, "Name": "Αντιφίλιπποι,οι", "Code": 503010301 }, "geometry": { "type": "Point", "coordinates": [ 24.211523741309467, 40.944828883463835 ] } },
{ "type": "Feature", "properties": { "objectid": 6852.0, "point_x": 516763.2, "point_y": 4525876.0, "lat": 40.883793, "lon": 24.198973, "h": 160.0, "Name": "Κηπία,τα", "Code": 503010401 }, "geometry": { "type": "Point", "coordinates": [ 24.20075339515564, 40.886365169460142 ] } },
{ "type": "Feature", "properties": { "objectid": 6894.0, "point_x": 525707.25, "point_y": 4530108.0, "lat": 40.921684, "lon": 24.305307, "h": 99.0, "Name": "Κοκκινόχωμα,το", "Code": 503010501 }, "geometry": { "type": "Point", "coordinates": [ 24.307093786906265, 40.924255341400809 ] } },
{ "type": "Feature", "properties": { "objectid": 6786.0, "point_x": 525173.94, "point_y": 4520583.5, "lat": 40.835903, "lon": 24.298588, "h": 14.0, "Name": "Νέα Πέραμος,η", "Code": 503020101 }, "geometry": { "type": "Point", "coordinates": [ 24.300371690871277, 40.838473166306848 ] } },
{ "type": "Feature", "properties": { "objectid": 6833.0, "point_x": 523781.8, "point_y": 4524074.0, "lat": 40.867386, "lon": 24.28221, "h": 83.0, "Name": "Άγιος Ανδρέας,ο", "Code": 503020201 }, "geometry": { "type": "Point", "coordinates": [ 24.283993573456637, 40.869956806888958 ] } },
{ "type": "Feature", "properties": { "objectid": 6768.0, "point_x": 520093.72, "point_y": 4518706.0, "lat": 40.819126, "lon": 24.238272, "h": 106.0, "Name": "Ελαιοχώριον,το", "Code": 503020301 }, "geometry": { "type": "Point", "coordinates": [ 24.24005276395819, 40.821697278736487 ] } },
{ "type": "Feature", "properties": { "objectid": 7306.0, "point_x": 520228.28, "point_y": 4515617.0, "lat": 40.791294, "lon": 24.239767, "h": 28.0, "Name": "Παραλία Ελαιοχωρίου,η", "Code": 503020302 }, "geometry": { "type": "Point", "coordinates": [ 24.241547575701386, 40.793868138927252 ] } },
{ "type": "Feature", "properties": { "objectid": 6803.0, "point_x": 521561.88, "point_y": 4521935.5, "lat": 40.848183, "lon": 24.255793, "h": 67.0, "Name": "Ελευθεραί,αι", "Code": 503020401 }, "geometry": { "type": "Point", "coordinates": [ 24.257575313467925, 40.85075504637814 ] } },
{ "type": "Feature", "properties": { "objectid": 6773.0, "point_x": 516470.16, "point_y": 4519102.0, "lat": 40.822777, "lon": 24.195314, "h": 316.0, "Name": "Μυρτόφυτον,το", "Code": 503020501 }, "geometry": { "type": "Point", "coordinates": [ 24.197094067477916, 40.825348515343769 ] } },
{ "type": "Feature", "properties": { "objectid": 7304.0, "point_x": 515273.25, "point_y": 4512415.5, "lat": 40.762566, "lon": 24.180958, "h": 21.0, "Name": "Παραλία Μυρτοφύτου,η", "Code": 503020502 }, "geometry": { "type": "Point", "coordinates": [ 24.182734628407715, 40.765138138845664 ] } },
{ "type": "Feature", "properties": { "objectid": 6819.0, "point_x": 526504.6, "point_y": 4523543.0, "lat": 40.86252, "lon": 24.314497, "h": 11.0, "Name": "Νέα Ηρακλίτσα,η", "Code": 503020601 }, "geometry": { "type": "Point", "coordinates": [ 24.316282335794885, 40.865089090816241 ] } },
{ "type": "Feature", "properties": { "objectid": 7312.0, "point_x": 527042.4, "point_y": 4521770.0, "lat": 40.84653, "lon": 24.3208, "h": 1.0, "Name": "Αποβάθρα,η", "Code": 503020602 }, "geometry": { "type": "Point", "coordinates": [ 24.322585228039209, 40.849101134782039 ] } },
{ "type": "Feature", "properties": { "objectid": 6748.0, "point_x": 513033.22, "point_y": 4517300.5, "lat": 40.80661, "lon": 24.15452, "h": 273.0, "Name": "Φωλεά,η", "Code": 503020701 }, "geometry": { "type": "Point", "coordinates": [ 24.156297385159807, 40.809182774756394 ] } },
{ "type": "Feature", "properties": { "objectid": 7966.0, "point_x": 511454.94, "point_y": 4509455.0, "lat": 40.735954, "lon": 24.135664, "h": 31.0, "Name": "Πύργος,ο", "Code": 503020702 }, "geometry": { "type": "Point", "coordinates": [ 24.137439264817903, 40.73852865793301 ] } },
{ "type": "Feature", "properties": { "objectid": 6740.0, "point_x": 495477.28, "point_y": 4516917.5, "lat": 40.80325, "lon": 23.946383, "h": 199.0, "Name": "Γαληψός,η", "Code": 503030101 }, "geometry": { "type": "Point", "coordinates": [ 23.948153645019453, 40.805826690555818 ] } },
{ "type": "Feature", "properties": { "objectid": 6729.0, "point_x": 502923.53, "point_y": 4515050.5, "lat": 40.786434, "lon": 24.03465, "h": 222.0, "Name": "Ακροπόταμος,ο", "Code": 503030201 }, "geometry": { "type": "Point", "coordinates": [ 24.036424002352373, 40.789011343357416 ] } },
{ "type": "Feature", "properties": { "objectid": 7258.0, "point_x": 507501.88, "point_y": 4509244.0, "lat": 40.7341, "lon": 24.088844, "h": 31.0, "Name": "Λουτρά Ελευθερών,τα", "Code": 503030202 }, "geometry": { "type": "Point", "coordinates": [ 24.090618213825866, 40.7366742127602 ] } },
{ "type": "Feature", "properties": { "objectid": 6689.0, "point_x": 498445.0, "point_y": 4510858.5, "lat": 40.748672, "lon": 23.98158, "h": 61.0, "Name": "Καριανή,η", "Code": 503030301 }, "geometry": { "type": "Point", "coordinates": [ 23.983351202701378, 40.751251197222018 ] } },
{ "type": "Feature", "properties": { "objectid": 7967.0, "point_x": 499205.28, "point_y": 4508905.5, "lat": 40.731083, "lon": 23.99059, "h": 1.0, "Name": "Βρύση,η", "Code": 503030302 }, "geometry": { "type": "Point", "coordinates": [ 23.992359362633163, 40.733659587586189 ] } },
{ "type": "Feature", "properties": { "objectid": 6714.0, "point_x": 495613.7, "point_y": 4513518.5, "lat": 40.77263, "lon": 23.948023, "h": 63.0, "Name": "Ορφάνιον,το", "Code": 503030401 }, "geometry": { "type": "Point", "coordinates": [ 23.949793845884201, 40.775205987273232 ] } },
{ "type": "Feature", "properties": { "objectid": 7252.0, "point_x": 494225.28, "point_y": 4511434.0, "lat": 40.75384, "lon": 23.931591, "h": 5.0, "Name": "Μέγας Αλέξανδρος,ο", "Code": 503030402 }, "geometry": { "type": "Point", "coordinates": [ 23.93336001107409, 40.756420314187146 ] } },
{ "type": "Feature", "properties": { "objectid": 6735.0, "point_x": 492302.3, "point_y": 4515970.5, "lat": 40.794693, "lon": 23.908754, "h": 121.0, "Name": "Οφρύνιον,το", "Code": 503030501 }, "geometry": { "type": "Point", "coordinates": [ 23.910524199909688, 40.797269803271966 ] } },
{ "type": "Feature", "properties": { "objectid": 7251.0, "point_x": 491749.5, "point_y": 4512483.5, "lat": 40.763275, "lon": 23.902246, "h": 1.0, "Name": "Παραλία Οφρυνίου,η", "Code": 503030502 }, "geometry": { "type": "Point", "coordinates": [ 23.904016101563588, 40.765853722470574 ] } },
{ "type": "Feature", "properties": { "objectid": 6785.0, "point_x": 501697.12, "point_y": 4520360.0, "lat": 40.83427, "lon": 24.020128, "h": 329.0, "Name": "Ποδοχώριον,το", "Code": 503030601 }, "geometry": { "type": "Point", "coordinates": [ 24.021903580318057, 40.836845525608602 ] } },
{ "type": "Feature", "properties": { "objectid": 6916.0, "point_x": 511782.03, "point_y": 4532734.0, "lat": 40.945656, "lon": 24.139978, "h": 348.0, "Name": "Νικήσιανη,η", "Code": 503040101 }, "geometry": { "type": "Point", "coordinates": [ 24.141759253986347, 40.948229798360167 ] } },
{ "type": "Feature", "properties": { "objectid": 6921.0, "point_x": 512219.84, "point_y": 4533674.5, "lat": 40.954124, "lon": 24.145199, "h": 261.0, "Name": "Γεωργιανή,η", "Code": 503040201 }, "geometry": { "type": "Point", "coordinates": [ 24.146979746885382, 40.956698108518488 ] } },
{ "type": "Feature", "properties": { "objectid": 6909.0, "point_x": 514769.25, "point_y": 4532133.0, "lat": 40.940193, "lon": 24.175453, "h": 225.0, "Name": "Παλαιοχώριον,το", "Code": 503040301 }, "geometry": { "type": "Point", "coordinates": [ 24.177235992652431, 40.94276627859206 ] } },
{ "type": "Feature", "properties": { "objectid": 6817.0, "point_x": 509251.6, "point_y": 4523193.5, "lat": 40.859745, "lon": 24.109772, "h": 215.0, "Name": "Μουσθένη,η", "Code": 503050101 }, "geometry": { "type": "Point", "coordinates": [ 24.111550655090394, 40.862319265313737 ] } },
{ "type": "Feature", "properties": { "objectid": 7279.0, "point_x": 514932.5, "point_y": 4524322.5, "lat": 40.86983, "lon": 24.177206, "h": 141.0, "Name": "Αυλή,η", "Code": 503050201 }, "geometry": { "type": "Point", "coordinates": [ 24.17898566635861, 40.872403796111406 ] } },
{ "type": "Feature", "properties": { "objectid": 6834.0, "point_x": 513812.4, "point_y": 4524181.0, "lat": 40.868576, "lon": 24.16391, "h": 141.0, "Name": "Μελισσοκομείον,το", "Code": 503050401 }, "geometry": { "type": "Point", "coordinates": [ 24.165689706306814, 40.871150230154115 ] } },
{ "type": "Feature", "properties": { "objectid": 7277.0, "point_x": 512860.06, "point_y": 4524296.0, "lat": 40.86963, "lon": 24.15261, "h": 190.0, "Name": "Πυργοχώριον,το", "Code": 503050402 }, "geometry": { "type": "Point", "coordinates": [ 24.154390527568314, 40.872203974346014 ] } },
{ "type": "Feature", "properties": { "objectid": 6835.0, "point_x": 515611.2, "point_y": 4524330.5, "lat": 40.869892, "lon": 24.185259, "h": 127.0, "Name": "Μεσιά,η", "Code": 503050501 }, "geometry": { "type": "Point", "coordinates": [ 24.187039884815444, 40.872465943848461 ] } },
{ "type": "Feature", "properties": { "objectid": 7278.0, "point_x": 516246.5, "point_y": 4523206.0, "lat": 40.85975, "lon": 24.192768, "h": 126.0, "Name": "Μέλισσα,η", "Code": 503050502 }, "geometry": { "type": "Point", "coordinates": [ 24.194549705065128, 40.862323597029565 ] } },
{ "type": "Feature", "properties": { "objectid": 6797.0, "point_x": 504853.34, "point_y": 4521376.5, "lat": 40.84342, "lon": 24.057571, "h": 248.0, "Name": "Πλατανότοπος,ο", "Code": 503050701 }, "geometry": { "type": "Point", "coordinates": [ 24.059347940025432, 40.845991566718752 ] } },
{ "type": "Feature", "properties": { "objectid": 12723.0, "point_x": 574277.94, "point_y": 4553787.0, "lat": 41.131992, "lon": 24.884956, "h": 82.0, "Name": "Ξάνθη,η", "Code": 601010101 }, "geometry": { "type": "Point", "coordinates": [ 24.886766343325565, 41.134554201106006 ] } },
{ "type": "Feature", "properties": { "objectid": 13086.0, "point_x": 572199.0, "point_y": 4552061.0, "lat": 41.116634, "lon": 24.859987, "h": 119.0, "Name": "Ξάνθη,η", "Code": 601010101 }, "geometry": { "type": "Point", "coordinates": [ 24.861796323839673, 41.119193338086482 ] } },
{ "type": "Feature", "properties": { "objectid": 12713.0, "point_x": 571968.0, "point_y": 4551101.5, "lat": 41.10801, "lon": 24.857124, "h": 96.0, "Name": "Εύμοιρον,το", "Code": 601010201 }, "geometry": { "type": "Point", "coordinates": [ 24.858931932209988, 41.110571799117999 ] } },
{ "type": "Feature", "properties": { "objectid": 13091.0, "point_x": 572887.1, "point_y": 4547860.5, "lat": 41.07874, "lon": 24.867685, "h": 43.0, "Name": "Λεύκη,η", "Code": 601010203 }, "geometry": { "type": "Point", "coordinates": [ 24.86949281014433, 41.081301447979072 ] } },
{ "type": "Feature", "properties": { "objectid": 13089.0, "point_x": 570574.94, "point_y": 4548355.0, "lat": 41.083397, "lon": 24.84022, "h": 59.0, "Name": "Πετροχώριον,το", "Code": 601010206 }, "geometry": { "type": "Point", "coordinates": [ 24.84202650728059, 41.08595745696632 ] } },
{ "type": "Feature", "properties": { "objectid": 12728.0, "point_x": 578347.94, "point_y": 4555285.0, "lat": 41.1451, "lon": 24.933632, "h": 79.0, "Name": "Κιμμέρια,τα", "Code": 601010301 }, "geometry": { "type": "Point", "coordinates": [ 24.935443714464476, 41.147660537874195 ] } },
{ "type": "Feature", "properties": { "objectid": 12736.0, "point_x": 559055.7, "point_y": 4560761.5, "lat": 41.196064, "lon": 24.704285, "h": 105.0, "Name": "Σταυρούπολις,η", "Code": 601020101 }, "geometry": { "type": "Point", "coordinates": [ 24.7060897072455, 41.198625650997251 ] } },
{ "type": "Feature", "properties": { "objectid": 12738.0, "point_x": 556080.06, "point_y": 4562953.5, "lat": 41.216022, "lon": 24.669, "h": 157.0, "Name": "Δαφνών,ο", "Code": 601020301 }, "geometry": { "type": "Point", "coordinates": [ 24.670805891071033, 41.218584597073573 ] } },
{ "type": "Feature", "properties": { "objectid": 12745.0, "point_x": 555462.44, "point_y": 4567601.0, "lat": 41.257923, "lon": 24.662056, "h": 553.0, "Name": "Άνω Καρυόφυτον,το", "Code": 601020401 }, "geometry": { "type": "Point", "coordinates": [ 24.663861523804805, 41.260486056504519 ] } },